,school_name,address,service,lat,lon
0,P.S. 015 Roberto Clemente,"333 EAST 4 STREET, MANHATTAN, NY, 10009",Community School MH,40.7219088,-73.9787369
1,P.S. 020 Anna Silver,"166 ESSEX STREET, MANHATTAN, NY, 10002",School-based Mental Health Clinic,40.7210669,-73.9864005
2,P.S. 034 Franklin D. Roosevelt,"730 EAST 12 STREET, MANHATTAN, NY, 10009",School-based Mental Health Clinic,40.7261446,-73.9750657
3,The STAR Academy - P.S.63,"121 EAST 3 STREET, MANHATTAN, NY, 10009",School-based Mental Health Clinic,40.7244069,-73.9862627
4,P.S. 064 Robert Simon,"600 EAST 6 STREET, MANHATTAN, NY, 10009",School-based Health Center w/ Mental Health,40.7238456,-73.9817633
5,P.S. 134 Henrietta Szold,"293 EAST BROADWAY, MANHATTAN, NY, 10002",School-based Mental Health Clinic,40.7142834,-73.982957
6,P.S. 140 Nathan Straus,"123 RIDGE STREET, MANHATTAN, NY, 10002",School-based Mental Health Clinic,40.7191282,-73.9832826
7,P.S. 142 Amalia Castro,"100 ATTORNEY STREET, MANHATTAN, NY, 10002",School-based Mental Health Clinic,40.7182566,-73.98401299999999
8,P.S. 184m Shuang Wen,"327 CHERRY STREET, MANHATTAN, NY, 10002",School Mental Health Specialist Program,40.7114447,-73.98548939999999
9,P.S. 188 The Island School,"442 EAST HOUSTON STREET, NEW YORK, NY, 10002",Community School MH,40.7198989,-73.9773555
10,Orchard Collegiate Academy,"220 HENRY STREET, MANHATTAN, NY, 10002",Community School MH,40.7134455,-73.9860332
11,University Neighborhood Middle School,"220 HENRY STREET, MANHATTAN, NY, 10002",School-based Health Center w/ Mental Health,40.7134455,-73.9860332
12,Neighborhood School,"121 EAST 3 STREET, MANHATTAN, NY, 10009",School-based Mental Health Clinic,40.7244069,-73.9862627
13,Earth School,"600 EAST 6 STREET, MANHATTAN, NY, 10009",School-based Health Center w/ Mental Health,40.7238456,-73.9817633
14,School for Global Leaders,"145 STANTON STREET, MANHATTAN, NY, 10002",School Mental Health Specialist Program,40.720088,-73.9860332
15,University Neighborhood High School,"200 MONROE STREET, MANHATTAN, NY, 10002",School Mental Health Specialist Program,40.7123543,-73.9840589
16,East Side Community School,"420 East 12 Street, Manhattan, NY, 10009",School-based Mental Health Clinic,40.7290533,-73.98250279999999
17,Bard High School Early College,"525 EAST HOUSTON STREET, MANHATTAN, NY, 10002",School Mental Health Specialist Program,40.7180919,-73.97607459999999
18,Tompkins Square Middle School,"600 EAST 6 STREET, MANHATTAN, NY, 10009",School-based Health Center w/ Mental Health,40.7238456,-73.9817633
19,P.S. 011 William T. Harris,"320 WEST 21 STREET, MANHATTAN, NY, 10011",School-based Health Center w/ Mental Health,40.744296,-74.0006788
20,P.S. 041 Greenwich Village,"116 WEST 11 STREET, MANHATTAN, NY, 10011",School-based Mental Health Clinic,40.7355874,-73.9992096
21,J.H.S. 104 Simon Baruch,"330 EAST 21 STREET, MANHATTAN, NY, 10010",School Mental Health Specialist Program,40.7358068,-73.9805744
22,P.S. 111 Adolph S. Ochs,"440 WEST 53 STREET, MANHATTAN, NY, 10019",School-based Mental Health Clinic,40.7660107,-73.9897148
23,East Side Middle School,"331 EAST 91ST STREET, MANHATTAN, NY, 10128",School Mental Health Specialist Program,40.7804173,-73.9475088
24,P.S. 116 Mary Lindley Murray,"210 EAST 33 STREET, MANHATTAN, NY, 10016",School-based Mental Health Clinic,40.74449660000001,-73.9776384
25,P.S. 126 Jacob August Riis,"80 CATHERINE STREET, MANHATTAN, NY, 10038",School-based Mental Health Clinic,40.7105672,-73.9970098
26,M.S. 131,"100 HESTER STREET, MANHATTAN, NY, 10002",School Mental Health Specialist Program,40.7161943,-73.9933849
27,The Urban Assembly School for Emergency Management,"411 PEARL STREET, MANHATTAN, NY, 10038",School-based Health Center w/ Mental Health,40.7110316,-74.0013216
28,Yorkville Community School,"421 EAST 88 STREET, MANHATTAN, NY, 10128",School-based Mental Health Clinic,40.7779225,-73.9473251
29,J.H.S. 167 Robert F. Wagner,"220 EAST 76 STREET, MANHATTAN, NY, 10021",School Mental Health Specialist Program,40.7718269,-73.95794029999999
30,Yorkville East Middle School,"1458 YORK AVENUE, MANHATTAN, NY, 10075",School Mental Health Specialist Program,40.770261,-73.9509131
31,P.S./I.S. 217 Roosevelt Island,"645 MAIN STREET, MANHATTAN, NY, 10044",School Mental Health Specialist Program,40.764146,-73.9483885
32,Ella Baker School,"317 EAST 67 STREET, MANHATTAN, NY, 10065",School-based Health Center w/ Mental Health,40.7653683,-73.9596962
33,The Clinton School,"10 East 15th Street, MANHATTAN, NY, 10003",School Response Team,40.7361099,-73.9922772
34,Battery Park City School,"55 BATTERY PLACE, MANHATTAN, NY, 10280",School Mental Health Specialist Program,40.7058834,-74.0178135
35,Manhattan Early College School for Advertising,"411 PEARL STREET, MANHATTAN, NY, 10038",School-based Health Center w/ Mental Health,40.7110316,-74.0013216
36,Urban Assembly Maker Academy,"411 PEARL STREET, MANHATTAN, NY, 10038",School-based Health Center w/ Mental Health,40.7110316,-74.0013216
37,Food and Finance High School,"525 WEST 50TH STREET, MANHATTAN, NY, 10019",School-based Health Center w/ Mental Health,40.76563840000001,-73.9931036
38,I.S. 289,"201 WARREN STREET, MANHATTAN, NY, 10282",School Mental Health Specialist Program,40.7169119,-74.01359699999999
39,Essex Street Academy,"350 GRAND STREET, MANHATTAN, NY, 10002",School-based Health Center w/ Mental Health,40.7173452,-73.9892929
40,High School of Hospitality Management,"525 WEST 50TH STREET, MANHATTAN, NY, 10019",Prevention Intervention Program MH,40.76563840000001,-73.9931036
41,M.S. 297,"75 MORTON STREET, MANHATTAN, NY, 10014",School Mental Health Specialist Program,40.731204,-74.0074039
42,Pace High School,"100 HESTER STREET, MANHATTAN, NY, 10002",School Mental Health Specialist Program,40.7161943,-73.9933849
43,"Urban Assembly School of Design and Construction, The","525 WEST 50TH STREET, MANHATTAN, NY, 10019",School-based Health Center w/ Mental Health,40.76563840000001,-73.9931036
44,"Facing History School, The","525 WEST 50TH STREET, MANHATTAN, NY, 10019",School-based Health Center w/ Mental Health,40.76563840000001,-73.9931036
45,"Urban Assembly Academy of Government and Law, The","350 GRAND STREET, MANHATTAN, NY, 10002",School-based Health Center w/ Mental Health,40.7173452,-73.9892929
46,Lower Manhattan Arts Academy,"350 GRAND STREET, MANHATTAN, NY, 10002",School-based Health Center w/ Mental Health,40.7173452,-73.9892929
47,New York City Lab Middle School for Collaborative Studies,"333 WEST 17 STREET, MANHATTAN, NY, 10011",School Mental Health Specialist Program,40.74250989999999,-74.0022418
48,"James Baldwin School, The: A School for Expeditionary Learning","351 WEST 18 STREET, MANHATTAN, NY, 10011",School-based Health Center w/ Mental Health,40.7432281,-74.002426
49,"Urban Assembly School of Business for Young Women, the","26 BROADWAY, MANHATTAN, NY, 10004",School Mental Health Specialist Program,40.7052022,-74.0131655
50,The 47 American Sign Language & English Lower School,"223 EAST 23 STREET, MANHATTAN, NY, 10010",School Mental Health Specialist Program,40.7387769,-73.9814014
51,Gramercy Arts High School,"40 IRVING PLACE, MANHATTAN, NY, 10003",School-based Health Center w/ Mental Health,40.73518079999999,-73.9870892
52,Manhattan Business Academy,"351 WEST 18 STREET, MANHATTAN, NY, 10011",School-based Health Center w/ Mental Health,40.7432281,-74.002426
53,Spruce Street School,"12 SPRUCE STREET, MANHATTAN, NY, 10038",School Mental Health Specialist Program,40.7110565,-74.0053612
54,The High School For Language And Diplomacy,"40 IRVING PLACE, MANHATTAN, NY, 10003",School-based Health Center w/ Mental Health,40.73518079999999,-73.9870892
55,High School for Environmental Studies,"444 WEST 56 STREET, MANHATTAN, NY, 10019",School-based Mental Health Clinic,40.7677451,-73.98809920000001
56,Professional Performing Arts High School,"328 WEST 48 STREET, MANHATTAN, NY, 10036",School Mental Health Specialist Program,40.761226,-73.9886092
57,Baruch College Campus High School,"55 EAST 25 STREET, MANHATTAN, NY, 10010",School Mental Health Specialist Program,40.741968,-73.98589919999999
58,N.Y.C. Lab School for Collaborative Studies,"333 WEST 17 STREET, MANHATTAN, NY, 10011",School Mental Health Specialist Program,40.74250989999999,-74.0022418
59,School of the Future High School,"127 EAST 22 STREET, MANHATTAN, NY, 10010",School Mental Health Specialist Program,40.7391109,-73.9853486
60,N.Y.C. Museum School,"333 WEST 17 STREET, MANHATTAN, NY, 10011",School Mental Health Specialist Program,40.74250989999999,-74.0022418
61,Eleanor Roosevelt High School,"411 EAST 76 STREET, MANHATTAN, NY, 10021",School Mental Health Specialist Program,40.7702849,-73.9532948
62,Millennium High School,"75 BROAD STREET, MANHATTAN, NY, 10004",School Mental Health Specialist Program,40.70473,-74.0114523
63,Landmark High School,"351 WEST 18 STREET, MANHATTAN, NY, 10011",School-based Health Center w/ Mental Health,40.7432281,-74.002426
64,Quest to Learn,"351 WEST 18 STREET, MANHATTAN, NY, 10011",School-based Health Center w/ Mental Health,40.7432281,-74.002426
65,Leadership and Public Service High School,"90 TRINITY PLACE, MANHATTAN, NY, 10006",Prevention Intervention Program MH,40.708961,-74.01243099999999
66,Manhattan Academy For Arts & Language,"111 EAST 33RD STREET, MANHATTAN, NY, 10016",School-based Health Center w/ Mental Health,40.7463061,-73.9811402
67,Murray Hill Academy,"111 EAST 33RD STREET, MANHATTAN, NY, 10016",School-based Health Center w/ Mental Health,40.7463061,-73.9811402
68,Hudson High School of Learning Technologies,"351 WEST 18 STREET, MANHATTAN, NY, 10011",School-based Health Center w/ Mental Health,40.7432281,-74.002426
69,International High School at Union Square,"40 IRVING PLACE, MANHATTAN, NY, 10003",School-based Health Center w/ Mental Health,40.73518079999999,-73.9870892
70,Manhattan Village Academy,"43 WEST 22 STREET, MANHATTAN, NY, 10010",School Mental Health Specialist Program,40.7419328,-73.9922313
71,Vanguard High School,"317 EAST 67 STREET, MANHATTAN, NY, 10065",School-based Health Center w/ Mental Health,40.7653683,-73.9596962
72,Manhattan International High School,"317 EAST 67 STREET, MANHATTAN, NY, 10065",School-based Health Center w/ Mental Health,40.7653683,-73.9596962
73,Stuyvesant High School,"345 CHAMBERS STREET, MANHATTAN, NY, 10282",School-based Mental Health Clinic,40.7181492,-74.0137623
74,High School of Economics and Finance,"100 TRINITY PLACE, MANHATTAN, NY, 10006",School Mental Health Specialist Program,40.70925709999999,-74.0123392
75,Unity Center for Urban Technologies,"111 EAST 33RD STREET, MANHATTAN, NY, 10016",School-based Health Center w/ Mental Health,40.7463061,-73.9811402
76,Talent Unlimited High School,"317 EAST 67 STREET, MANHATTAN, NY, 10065",School-based Health Center w/ Mental Health,40.7653683,-73.9596962
77,Murry Bergtraum High School for Business Careers,"411 PEARL STREET, MANHATTAN, NY, 10038",Prevention Intervention Program MH,40.7110316,-74.0013216
78,Jacqueline Kennedy Onassis High School,"120 WEST 46 STREET, MANHATTAN, NY, 10036",Prevention Intervention Program MH,40.7576045,-73.9835118
79,Repertory Company High School for Theatre Arts,"123 WEST 43 STREET, MANHATTAN, NY, 10036",School Mental Health Specialist Program,40.7561203,-73.98445579999999
80,Union Square Academy for Health Sciences,"40 IRVING PLACE, MANHATTAN, NY, 10003",School-based Health Center w/ Mental Health,40.73518079999999,-73.9870892
81,Harvest Collegiate High School,"34 WEST 14 STREET, MANHATTAN, NY, 10011",School Mental Health Specialist Program,40.7365216,-73.99550860000001
82,Manhattan Bridges High School,"525 WEST 50TH STREET, MANHATTAN, NY, 10019",School-based Health Center w/ Mental Health,40.76563840000001,-73.9931036
83,New Design High School,"350 GRAND STREET, MANHATTAN, NY, 10002",School-based Health Center w/ Mental Health,40.7173452,-73.9892929
84,Independence High School,"850 10TH AVENUE, MANHATTAN, NY, 10019",School-based Mental Health Clinic,40.7678733,-73.988931
85,High School for Dual Language and Asian Studies,"350 GRAND STREET, MANHATTAN, NY, 10002",School-based Health Center w/ Mental Health,40.7173452,-73.9892929
86,Academy for Software Engineering,"40 IRVING PLACE, MANHATTAN, NY, 10003",School-based Health Center w/ Mental Health,40.73518079999999,-73.9870892
87,Urban Academy Laboratory High School,"317 EAST 67 STREET, MANHATTAN, NY, 10065",School-based Health Center w/ Mental Health,40.7653683,-73.9596962
88,The High School of Fashion Industries,"225 WEST 24 STREET, MANHATTAN, NY, 10011",School-based Health Center w/ Mental Health,40.7456692,-73.99650369999999
89,Humanities Preparatory Academy,"351 WEST 18 STREET, MANHATTAN, NY, 10011",School-based Health Center w/ Mental Health,40.7432281,-74.002426
90,Art and Design High School,"231-249 EAST 56 STREET, MANHATTAN, NY, 10019",Prevention Intervention Program MH,40.759213,-73.966183
91,Life Sciences Secondary School,"320 EAST 96 STREET, MANHATTAN, NY, 10128",School Mental Health Specialist Program,40.7832167,-73.9460393
92,Lower Manhattan Community Middle School,"26 BROADWAY, MANHATTAN, NY, 10004",School Mental Health Specialist Program,40.7052022,-74.0131655
93,City Knoll Middle School,"440 WEST 53 STREET, MANHATTAN, NY, 10019",School-based Mental Health Clinic,40.7660107,-73.9897148
94,J.H.S. 054 Booker T. Washington,"103 WEST 107 STREET, MANHATTAN, NY, 10025",School Mental Health Specialist Program,40.8004677,-73.96266229999999
95,P.S. 076 A. Philip Randolph,"220 WEST 121 STREET, MANHATTAN, NY, 10027",School Mental Health Specialist Program,40.8065013,-73.9511366
96,P.S. 084 Lillian Weber,"32 WEST 92 STREET, MANHATTAN, NY, 10025",School-based Mental Health Clinic,40.7894371,-73.9680806
97,"P.S. 145, The Bloomingdale School","150 WEST 105 STREET, MANHATTAN, NY, 10025",School-based Mental Health Clinic,40.7990784,-73.965096
98,P.S. 149 Sojourner Truth,"41 WEST 117 STREET, MANHATTAN, NY, 10026",Community School MH,40.802645,-73.9481517
99,P.S. 163 Alfred E. Smith,"163 WEST 97 STREET, MANHATTAN, NY, 10025",School-based Mental Health Clinic,40.7948887,-73.9684479
100,P.S. 180 Hugo Newman,"370 WEST 120TH STREET, MANHATTAN, NY, 10027",School-based Health Center w/ Mental Health,40.8076245,-73.95604999999999
101,The Locke School of Arts and Engineering,"20 WEST 112 STREET, MANHATTAN, NY, 10026",School-based Mental Health Clinic,40.7984949,-73.9498493
102,The Riverside School for Makers and Artists,"300 WEST 61ST STREET, NEW YORK, NY, 10023",School Mental Health Specialist Program,40.7729791,-73.9900749
103,M.S. 243 Center School,"100 WEST 84 STREET, MANHATTAN, NY, 10024",School Mental Health Specialist Program,40.7850907,-73.973866
104,M.S. M245 The Computer School,"100 WEST 77 STREET, MANHATTAN, NY, 10024",School Mental Health Specialist Program,40.7810978,-73.97809649999999
105,M.S. M247 Dual Language Middle School,"100 WEST 77 STREET, MANHATTAN, NY, 10024",School Response Team,40.7810978,-73.97809649999999
106,M.S. 250 West Side Collaborative Middle School,"735 WEST END AVENUE, MANHATTAN, NY, 10025",School Mental Health Specialist Program,40.7952089,-73.9739578
107,Lafayette Academy,"154 WEST 93 STREET, MANHATTAN, NY, 10025",School-based Mental Health Clinic,40.7912562,-73.9711111
108,Community Action School - MS 258,"154 WEST 93 STREET, MANHATTAN, NY, 10025",School-based Mental Health Clinic,40.7912562,-73.9711111
109,West End Secondary School,"227-243 WEST 61ST STREET, MANHATTAN, NY, 10023",School Mental Health Specialist Program,40.7726113,-73.988348
110,P.S. 333 Manhattan School for Children,"154 WEST 93 STREET, MANHATTAN, NY, 10025",School-based Mental Health Clinic,40.7912562,-73.9711111
111,The Anderson School,"100 WEST 77 STREET, MANHATTAN, NY, 10024",School Mental Health Specialist Program,40.7810978,-73.97809649999999
112,The Urban Assembly School for Green Careers,"145 WEST 84 STREET, MANHATTAN, NY, 10024",School-based Health Center w/ Mental Health,40.7860105,-73.9740956
113,The Global Learning Collaborative,"145 WEST 84 STREET, MANHATTAN, NY, 10024",School-based Health Center w/ Mental Health,40.7860105,-73.9740956
114,Innovation Diploma Plus,"145 WEST 84 STREET, MANHATTAN, NY, 10024",School-based Health Center w/ Mental Health,40.7860105,-73.9740956
115,Wadleigh Secondary School for the Performing & Visual Arts,"215 WEST 114 STREET, MANHATTAN, NY, 10026",Community School MH,40.8025744,-73.95414029999999
116,Frank McCourt High School,"145 WEST 84 STREET, MANHATTAN, NY, 10024",School-based Health Center w/ Mental Health,40.7860105,-73.9740956
117,West Prep Academy,"150 WEST 105 STREET, MANHATTAN, NY, 10025",School-based Mental Health Clinic,40.7990784,-73.965096
118,Beacon High School,"522 WEST 44TH STREET, NEW YORK, NY, 10036",School Mental Health Specialist Program,40.761364,-73.99613939999999
119,Edward A. Reynolds West Side High School,"140 WEST 102 STREET, MANHATTAN, NY, 10025",School-based Health Center w/ Mental Health,40.7971349,-73.9668867
120,Frederick Douglass Academy II Secondary School,"215 WEST 114 STREET, MANHATTAN, NY, 10026",School-based Mental Health Clinic,40.8025744,-73.95414029999999
121,Mott Hall II,"234 WEST 109 STREET, MANHATTAN, NY, 10025",School Mental Health Specialist Program,40.8026474,-73.9660602
122,P.S. 007 Samuel Stern,"160 EAST 120 STREET, MANHATTAN, NY, 10035",School-based Health Center w/ Mental Health,40.8007729,-73.9393346
123,Tag Young Scholars,"240 EAST 109 STREET, MANHATTAN, NY, 10029",School-based Health Center w/ Mental Health,40.792727,-73.9421359
124,River East Elementary,"2351 FIRST AVENUE, MANHATTAN, NY, 10035",School-based Health Center w/ Mental Health,40.7992798,-73.93391609999999
125,P.S. 38 Roberto Clemente,"232 EAST 103 STREET, MANHATTAN, NY, 10029",Community School MH,40.7886777,-73.9448453
126,James Weldon Johnson,"176 EAST 115 STREET, MANHATTAN, NY, 10029",School-based Health Center w/ Mental Health,40.7972688,-73.9412633
127,The Lexington Academy,"131 EAST 104 STREET, MANHATTAN, NY, 10029",School-based Mental Health Clinic,40.7914348,-73.9474169
128,P.S. 083 Luis Munoz Rivera,"219 East 109 Street, Manhattan, NY, 10029",School-based Health Center w/ Mental Health,40.7931298,-73.9418125
129,P.S. 096 Joseph Lanzetta,"216 EAST 120 STREET, MANHATTAN, NY, 10035",Community School MH,40.8000808,-73.9373659
130,P.S. 102 Jacques Cartier,"315 EAST 113 STREET, MANHATTAN, NY, 10029",School-based Mental Health Clinic,40.79492219999999,-73.9383242
131,P.S. 108 Assemblyman Angelo Del Toro Educational Complex,"1615 MADISON AVENUE, MANHATTAN, NY, 10029",School-based Health Center w/ Mental Health,40.7951252,-73.9478762
132,P.S. 146 Ann M. Short,"421 EAST 106 STREET, MANHATTAN, NY, 10029",School-based Mental Health Clinic,40.78919,-73.9378835
133,P.S. 155 William Paca,"319 EAST 117 STREET, MANHATTAN, NY, 10035",School-based Health Center w/ Mental Health,40.7975709,-73.93607399999999
134,P.S. 171 Patrick Henry,"19 EAST 103 STREET, MANHATTAN, NY, 10029",School Mental Health Specialist Program,40.7923184,-73.951458
135,The Bilingual Bicultural School,"219 East 109 Street, Manhattan, NY, 10029",School-based Health Center w/ Mental Health,40.7931298,-73.9418125
136,P.S. 206 Jose Celso Barbosa,"508 EAST 120 STREET, MANHATTAN, NY, 10035",School-based Mental Health Clinic,40.7969061,-73.9299784
137,M.S. 224 Manhattan East School for Arts & Academics,"410 EAST 100 STREET, MANHATTAN, NY, 10029",School Mental Health Specialist Program,40.7851753,-73.9424573
138,Esperanza Preparatory Academy,"240 EAST 109 STREET, MANHATTAN, NY, 10029",School-based Health Center w/ Mental Health,40.792727,-73.9421359
139,Mosaic Preparatory Academy,"141 EAST 111 STREET, MANHATTAN, NY, 10029",School Mental Health Specialist Program,40.7959016,-73.9446616
140,Renaissance School of the Arts,"319 EAST 117 STREET, MANHATTAN, NY, 10035",Community School MH,40.7975709,-73.93607399999999
141,Manhattan Center for Science and Mathematics,"260 PLEASANT AVENUE, MANHATTAN, NY, 10029",School-based Health Center w/ Mental Health,40.7940732,-73.93290520000001
142,Park East High School,"230 EAST 105 STREET, MANHATTAN, NY, 10029",School Mental Health Specialist Program,40.7902049,-73.9441678
143,Central Park East I,"1573 MADISON AVENUE, MANHATTAN, NY, 10029",School-based Mental Health Clinic,40.7936872,-73.9486109
144,Central Park East High School,"1573 MADISON AVENUE, MANHATTAN, NY, 10029",School-based Mental Health Clinic,40.7936872,-73.9486109
145,Young Women's Leadership School,"105 EAST 106TH STREET, NEW YORK, NY, 10029",School Mental Health Specialist Program,40.792935,-73.94716799999999
146,"Heritage School, The","1680 LEXINGTON AVENUE, MANHATTAN, NY, 10029",Prevention Intervention Program MH,40.7918963,-73.94686589999999
147,Isaac Newton Middle School for Math & Science,"260 PLEASANT AVENUE, MANHATTAN, NY, 10029",School-based Health Center w/ Mental Health,40.7940732,-73.93290520000001
148,Central Park East II,"433 EAST 100 STREET, MANHATTAN, NY, 10029",Community School MH,40.78518,-73.9410682
149,P.S. 036 Margaret Douglas,"123 MORNINGSIDE DRIVE, MANHATTAN, NY, 10027",School-based Mental Health Clinic,40.8106604,-73.9573358
150,P.S. 046 Arthur Tappan,"2987 FREDERICK DOUGLASS BOULEVARD, MANHATTAN, NY, 10039",School-based Health Center w/ Mental Health,40.8316474,-73.93607399999999
151,P.S. 092 Mary McLeod Bethune,"222 WEST 134 STREET, MANHATTAN, NY, 10030",School Mental Health Specialist Program,40.8148226,-73.94594740000001
152,P.S. 123 Mahalia Jackson,"301 WEST 140 STREET, MANHATTAN, NY, 10030",Community School MH,40.8203373,-73.9443402
153,P.S. 129 John H. Finley,"425 WEST 130 STREET, MANHATTAN, NY, 10027",School Mental Health Specialist Program,40.8150175,-73.9521927
154,P.S. 133 Fred R Moore,"2121 5 AVENUE, MANHATTAN, NY, 10037",School Mental Health Specialist Program,40.8098605,-73.9392692
155,Eagle Academy for Young Men of Harlem,"6 EDGECOMBE AVENUE, MANHATTAN, NY, 10030",School-based Health Center w/ Mental Health,40.8174596,-73.94714139999999
156,P.S. 154 Harriet Tubman,"250 WEST 127 STREET, MANHATTAN, NY, 10027",Community School MH,40.8106338,-73.9487487
157,P.S. 161 Pedro Albizu Campos,"499 WEST 133 STREET, MANHATTAN, NY, 10027",School-based Mental Health Clinic,40.81775520000001,-73.9524683
158,P.S. 194 Countee Cullen,"244 WEST 144 STREET, MANHATTAN, NY, 10030",Community School MH,40.8212338,-73.9406204
159,Urban Assembly Academy for Future Leaders,"509 WEST 129 STREET, MANHATTAN, NY, 10027",School Mental Health Specialist Program,40.8156813,-73.95577449999999
160,Mott Hall High School,"6 EDGECOMBE AVENUE, MANHATTAN, NY, 10030",School-based Health Center w/ Mental Health,40.8174596,-73.94714139999999
161,Columbia Secondary School,"425 WEST 123 STREET, MANHATTAN, NY, 10027",School Response Team,40.810687,-73.95606099999999
162,Urban Assembly School for the Performing Arts,"509 WEST 129 STREET, MANHATTAN, NY, 10027",School Mental Health Specialist Program,40.8156813,-73.95577449999999
163,School of Earth Exploration and Discovery Harlem (SEED Harlem),"425 WEST 130 STREET, MANHATTAN, NY, 10027",School Mental Health Specialist Program,40.8150175,-73.9521927
164,Frederick Douglass Academy,"2581 7TH AVENUE, MANHATTAN, NY, 10039",School-based Health Center w/ Mental Health,40.8243981,-73.936545
165,New Design Middle School,"625 WEST 133 STREET, MANHATTAN, NY, 10027",School Response Team,40.81970159999999,-73.9567465
166,Teachers College Community School,"168 MORNINGSIDE AVENUE, MANHATTAN, NY, 10027",School Mental Health Specialist Program,40.812531,-73.95354739999999
167,Thurgood Marshall Academy for Learning and Social Change,"200-214 WEST 135TH STREET, MANHATTAN, NY, 10030",School-based Health Center w/ Mental Health,40.8152484,-73.9443203
168,"High School for Mathematics, Science and Engineering at City College","240 CONVENT AVE, MANHATTAN, NY, 10031",School-based Mental Health Clinic,40.8214739,-73.94903889999999
169,P.S. 004 Duke Ellington,"500 WEST 160 STREET, MANHATTAN, NY, 10032",School-based Mental Health Clinic,40.8348474,-73.9412036
170,P.S. 018 Park Terrace,"4124 9 AVENUE, MANHATTAN, NY, 10034",School Mental Health Specialist Program,40.8716912,-73.9117038
171,P.S. 048 P.O. Michael J. Buczek,"4360-78 BROADWAY, MANHATTAN, NY, 10033",School-based Mental Health Clinic,40.8533574,-73.9335421
172,Harold O. Levy School,"650 ACADEMY STREET, MANHATTAN, NY, 10034",School-based Health Center w/ Mental Health,40.8659143,-73.925157
173,Dos Puentes Elementary School,"185 WADSWORTH AVENUE, MANHATTAN, NY, 10033",School-based Mental Health Clinic,40.8505665,-73.9339155
174,P.S. 128 Audubon,"560 WEST 169 STREET, MANHATTAN, NY, 10032",School-based Mental Health Clinic,40.8409822,-73.9387394
175,P.S. 132 Juan Pablo Duarte,"185 WADSWORTH AVENUE, MANHATTAN, NY, 10033",Community School MH,40.8505665,-73.9339155
176,J.H.S. 143 Eleanor Roosevelt,"511 WEST 182ND STREET, MANHATTAN, NY, 10033",School-based Health Center w/ Mental Health,40.8490987,-73.9311063
177,P.S. 152 Dyckman Valley,"93 NAGLE AVENUE, MANHATTAN, NY, 10040",School-based Mental Health Clinic,40.8601407,-73.92757780000001
178,P.S. 173,"306 FORT WASHINGTON AVENUE, MANHATTAN, NY, 10033",School-based Mental Health Clinic,40.8455807,-73.9394149
179,Professor Juan Bosch Public School,"12-18 ELLWOOD STREET, MANHATTAN, NY, 10040",School Mental Health Specialist Program,40.859308,-73.9282207
180,P.S./I.S. 187 Hudson Cliffs,"349 CABRINI BOULEVARD, MANHATTAN, NY, 10040",School-based Mental Health Clinic,40.8560964,-73.93703839999999
181,P.S. 189,"2580 AMSTERDAM AVENUE, MANHATTAN, NY, 10040",School-based Mental Health Clinic,40.8531056,-73.9279452
182,P.S. 192 Jacob H. Schiff,"500 WEST 138 STREET, MANHATTAN, NY, 10031",School-based Health Center w/ Mental Health,40.8210016,-73.9533407
183,Hamilton Grange Middle School,"500 WEST 138 STREET, MANHATTAN, NY, 10031",School-based Health Center w/ Mental Health,40.8210016,-73.9533407
184,P.S./I.S. 210 - Twenty-first Century Academy for Community Leadership,"501-503 WEST 152 STREET, MANHATTAN, NY, 10031",School Response Team,40.8299318,-73.9445704
185,Inwood Early College for Health and Information Technologies,"650 ACADEMY STREET, MANHATTAN, NY, 10034",School-based Health Center w/ Mental Health,40.8659143,-73.925157
186,The Mott Hall School,"71-111 CONVENT AVE, MANHATTAN, NY, 10027",School Mental Health Specialist Program,40.81577679999999,-73.95265189999999
187,Paula Hedbavny School,"421 W 219TH ST, MANHATTAN, NY, 10034",School Mental Health Specialist Program,40.8714909,-73.9122076
188,City College Academy of the Arts,"4600 BROADWAY, MANHATTAN, NY, 10040",School-based Health Center w/ Mental Health,40.8608344,-73.9300119
189,Amistad Dual Language School,"4862 BROADWAY, MANHATTAN, NY, 10034",School Response Team,40.8662865,-73.9239496
190,M.S. 319 - Maria Teresa,"21 JUMEL PLACE, MANHATTAN, NY, 10032",School-based Health Center w/ Mental Health,40.839456,-73.9357066
191,Middle School 322,"4600 BROADWAY, MANHATTAN, NY, 10040",School-based Health Center w/ Mental Health,40.8608344,-73.9300119
192,M.S. 324 - Patria Mirabal,"21 JUMEL PLACE, MANHATTAN, NY, 10032",School-based Health Center w/ Mental Health,40.839456,-73.9357066
193,Community Math & Science Prep,"401 WEST 164 STREET, MANHATTAN, NY, 10032",School-based Health Center w/ Mental Health,40.8369119,-73.9374121
194,Community Health Academy of the Heights,"504 WEST 158TH STREET, MANHATTAN, NY, 10032",School-based Health Center w/ Mental Health,40.8336267,-73.9422563
195,Washington Heights Expeditionary Learning School,"511 WEST 182ND STREET, MANHATTAN, NY, 10033",School-based Health Center w/ Mental Health,40.8490987,-73.9311063
196,Harbor Heights,"306 FORT WASHINGTON AVENUE, MANHATTAN, NY, 10033",School-based Mental Health Clinic,40.8455807,-73.9394149
197,Washington Heights Academy,"202 SHERMAN AVE, MANHATTAN, NY, 10034",School Mental Health Specialist Program,40.8655288,-73.92160729999999
198,High School for Excellence and Innovation,"650 ACADEMY STREET, MANHATTAN, NY, 10034",Community School MH,40.8659143,-73.925157
199,The College Academy,"549 AUDUBON AVENUE, MANHATTAN, NY, 10040",School-based Health Center w/ Mental Health,40.8561208,-73.9263326
200,High School for Media and Communications,"549 AUDUBON AVENUE, MANHATTAN, NY, 10040",Community School MH,40.8561208,-73.9263326
201,High School for Law and Public Service,"549 AUDUBON AVENUE, MANHATTAN, NY, 10040",School-based Health Center w/ Mental Health,40.8561208,-73.9263326
202,High School for Health Careers and Sciences,"549 AUDUBON AVENUE, MANHATTAN, NY, 10040",Community School MH,40.8561208,-73.9263326
203,Castle Bridge School,"560 WEST 169 STREET, MANHATTAN, NY, 10032",School-based Mental Health Clinic,40.8409822,-73.9387394
204,I.S. 528 Bea Fuller Rodgers School,"180 WADSWORTH AVENUE, MANHATTAN, NY, 10033",Community School MH,40.8506712,-73.9346503
205,A. Philip Randolph Campus High School,"443 WEST 135 STREET, MANHATTAN, NY, 10031",School-based Health Center w/ Mental Health,40.8183388,-73.9501311
206,Gregorio Luperon High School for Science and Mathematics,"501 WEST 165TH STREET, MANHATTAN, NY, 10032",School Mental Health Specialist Program,40.83846,-73.9386364
207,P.S. 5 Port Morris,"564 JACKSON AVENUE, BRONX, NY, 10455",School Mental Health Specialist Program,40.8135432,-73.9085228
208,P.S. 018 John Peter Zenger,"502 MORRIS AVENUE, BRONX, NY, 10451",School-based Health Center w/ Mental Health,40.8162658,-73.9225258
209,P.S./M.S. 029 Melrose School,"758 COURTLANDT AVENUE, BRONX, NY, 10451",School-based Health Center w/ Mental Health,40.8216206,-73.91683069999999
210,P.S./M.S. 031 The William Lloyd Garrison,"250 EAST 156 STREET, BRONX, NY, 10451",School-based Health Center w/ Mental Health,40.8224876,-73.9215612
211,P.S. 065 Mother Hale Academy,"677 EAST 141 STREET, BRONX, NY, 10454",School-based Mental Health Clinic,40.8076622,-73.91274299999999
212,J.H.S. 151 Lou Gehrig,"250 EAST 156 STREET, BRONX, NY, 10451",School-based Health Center w/ Mental Health,40.8224876,-73.9215612
213,P.S. 154 Jonathan D. Hyatt,"333 EAST 135 STREET, BRONX, NY, 10454",Community School MH,40.8082435,-73.92574069999999
214,P.S. 161 Juan Ponce De Leon School,"628 TINTON AVENUE, BRONX, NY, 10455",School Mental Health Specialist Program,40.8147331,-73.9050266
215,P.S. 179,"468 EAST 140 STREET, BRONX, NY, 10454",School-based Mental Health Clinic,40.8091409,-73.92013759999999
216,South Bronx Preparatory: A College Board School,"360 EAST 145 STREET, BRONX, NY, 10454",School Mental Health Specialist Program,40.8137231,-73.9206428
217,The Laboratory School of Finance and Technology: X223,"360 EAST 145 STREET, BRONX, NY, 10454",School Response Team,40.8137231,-73.9206428
218,P.S./I.S. 224,"345 BROOK AVENUE, BRONX, NY, 10454",School-based Health Center w/ Mental Health,40.8101969,-73.91862189999999
219,P.S. 277,"519 ST ANNS AVENUE, BRONX, NY, 10455",School Mental Health Specialist Program,40.8133253,-73.9137994
220,South Bronx Academy for Applied Media,"778 FOREST AVENUE, BRONX, NY, 10456",School-based Mental Health Clinic,40.8186399,-73.9053941
221,Academy of Public Relations,"778 FOREST AVENUE, BRONX, NY, 10456",School-based Mental Health Clinic,40.8186399,-73.9053941
222,International Community High School,"345 BROOK AVENUE, BRONX, NY, 10454",School-based Health Center w/ Mental Health,40.8101969,-73.91862189999999
223,Academy of Applied Mathematics and Technology,"345 BROOK AVENUE, BRONX, NY, 10454",School-based Health Center w/ Mental Health,40.8101969,-73.91862189999999
224,Concourse Village Elementary School,"750 CONCOURSE VILLAGE WEST, BRONX, NY, 10451",School Mental Health Specialist Program,40.8231334,-73.92284719999999
225,Young Leaders Elementary School,"468 EAST 140 STREET, BRONX, NY, 10454",School-based Mental Health Clinic,40.8091409,-73.92013759999999
226,Jill Chaifetz Transfer High School,"778 FOREST AVENUE, BRONX, NY, 10456",Community School MH,40.8186399,-73.9053941
227,Community School for Social Justice,"350 GERARD AVENUE, BRONX, NY, 10451",School-based Health Center w/ Mental Health,40.815542,-73.9304433
228,Mott Haven Village Preparatory High School,"701 ST. ANNS AVENUE, BRONX, NY, 10455",School-based Health Center w/ Mental Health,40.8179909,-73.9116769
229,University Heights Secondary School,"701 ST. ANNS AVENUE, BRONX, NY, 10455",School-based Health Center w/ Mental Health,40.8179909,-73.9116769
230,Hostos-Lincoln Academy of Science,"600 SAINT ANN'S AVENUE, BRONX, NY, 10455",School-based Health Center w/ Mental Health,40.8148083,-73.9120169
231,Bronx Leadership Academy II High School,"730 CONCOURSE VILLAGE WEST, BRONX, NY, 10451",School-based Health Center w/ Mental Health,40.8219741,-73.9230741
232,Careers in Sports High School,"730 CONCOURSE VILLAGE WEST, BRONX, NY, 10451",Community School MH,40.8219741,-73.9230741
233,The Urban Assembly Bronx Academy of Letters,"339 MORRIS AVENUE, BRONX, NY, 10451",School Mental Health Specialist Program,40.81366,-73.92599899999999
234,I.S. 584,"600 SAINT ANN'S AVENUE, BRONX, NY, 10455",Community School MH,40.8148083,-73.9120169
235,Walkabout Bronx High School,"730 CONCOURSE VILLAGE WEST, BRONX, NY, 10451",School-based Health Center w/ Mental Health,40.8219741,-73.9230741
236,Health Opportunities High School,"350 GERARD AVENUE, BRONX, NY, 10451",School-based Health Center w/ Mental Health,40.815542,-73.9304433
237,P.S. 071 Rose E. Scala,"3040 ROBERTS AVENUE, BRONX, NY, 10461",School Mental Health Specialist Program,40.8455954,-73.8296383
238,P.S. 75 School of Research and Discovery,"984 FAILE STREET, BRONX, NY, 10459",School Mental Health Specialist Program,40.8222269,-73.8889555
239,M.S. X101 Edward R. Byrne,"2750 LAFAYETTE AVENUE, BRONX, NY, 10465",School Response Team,40.827175,-73.8293166
240,J.H.S. 123 James M. Kieran,"1025 MORRISON AVENUE, BRONX, NY, 10472",Community School MH,40.82487709999999,-73.8740662
241,P.S. 130 Abram Stevens Hewitt,"750 PROSPECT AVENUE, BRONX, NY, 10455",School Mental Health Specialist Program,40.8176339,-73.9018573
242,J.H.S. 131 Albert Einstein,"885 BOLTON AVENUE, BRONX, NY, 10473",Community School MH,40.8232367,-73.85985509999999
243,P.S. X140 The Eagle School,"916 EAGLE AVENUE, BRONX, NY, 10456",School Mental Health Specialist Program,40.8234226,-73.9076299
244,P.S. 146 Edward Collins,"968 CAULDWELL AVENUE, BRONX, NY, 10456",School Mental Health Specialist Program,40.8251407,-73.9055782
245,Bronx Studio School for Writers and Artists,"928 SIMPSON STREET, BRONX, NY, 10459",Community School MH,40.8203827,-73.8930381
246,Women's Academy of Excellence,"456 WHITE PLAINS ROAD, BRONX, NY, 10473",School-based Health Center w/ Mental Health,40.814901,-73.8560573
247,Renaissance High School for Musical Theater and the Arts,"3000 EAST TREMONT AVENUE, BRONX, NY, 10461",School-based Health Center w/ Mental Health,40.8398166,-73.83795490000001
248,M.S. 301 Paul L. Dunbar,"890 CAULDWELL AVENUE, BRONX, NY, 10456",Community School MH,40.8225181,-73.90673160000001
249,M.S. 302 Luisa Dessus Cruz,"681 KELLY STREET, BRONX, NY, 10455",School Mental Health Specialist Program,40.81591179999999,-73.9016736
250,Millennium Art Academy,"1980 LAFAYETTE AVENUE, BRONX, NY, 10473",School-based Health Center w/ Mental Health,40.8211936,-73.856527
251,Pelham Lab High School,"3000 EAST TREMONT AVENUE, BRONX, NY, 10461",School-based Health Center w/ Mental Health,40.8398166,-73.83795490000001
252,The Longwood Academy of Discovery,"888 REV J A POLITE AVE, BRONX, NY, 10459",School-based Mental Health Clinic,40.8201293,-73.8986342
253,The School for Inquiry and Social Justice,"1025 MORRISON AVENUE, BRONX, NY, 10472",School-based Health Center w/ Mental Health,40.82487709999999,-73.8740662
254,Schuylerville Preparatory High School,"3000 EAST TREMONT AVENUE, BRONX, NY, 10461",School-based Health Center w/ Mental Health,40.8398166,-73.83795490000001
255,Bronx River High School,"3000 EAST TREMONT AVENUE, BRONX, NY, 10461",School-based Health Center w/ Mental Health,40.8398166,-73.83795490000001
256,"Archimedes Academy for Math, Science and Technology Applications","456 WHITE PLAINS ROAD, BRONX, NY, 10473",School-based Health Center w/ Mental Health,40.814901,-73.8560573
257,Urban Institute of Mathematics,"650 HOLLYWOOD AVENUE, BRONX, NY, 10465",Community School MH,40.8269794,-73.8182885
258,The Bronx Mathematics Preparatory School,"456 WHITE PLAINS ROAD, BRONX, NY, 10473",Community School MH,40.814901,-73.8560573
259,Antonia Pantoja Preparatory Academy: A College Board School,"1980 LAFAYETTE AVENUE, BRONX, NY, 10473",School-based Health Center w/ Mental Health,40.8211936,-73.856527
260,Bronx Community High School,"1980 LAFAYETTE AVENUE, BRONX, NY, 10473",School-based Health Center w/ Mental Health,40.8211936,-73.856527
261,Bronx Delta School,"650 HOLLYWOOD AVENUE, BRONX, NY, 10465",School-based Mental Health Clinic,40.8269794,-73.8182885
262,Herbert H. Lehman High School,"3000 EAST TREMONT AVENUE, BRONX, NY, 10461",Community School MH,40.8398166,-73.83795490000001
263,Bronx Academy for Multi-Media,"730 BRYANT AVENUE, BRONX, NY, 10474",Community School MH,40.8157147,-73.8853003
264,Bronx Bridges High School,"1980 LAFAYETTE AVENUE, BRONX, NY, 10473",School-based Health Center w/ Mental Health,40.8211936,-73.856527
265,Soundview Academy for Culture and Scholarship,"885 BOLTON AVENUE, BRONX, NY, 10473",Community School MH,40.8232367,-73.85985509999999
266,Gotham Collaborative High School,"1980 LAFAYETTE AVENUE, BRONX, NY, 10473",School-based Health Center w/ Mental Health,40.8211936,-73.856527
267,Mott Hall Community School,"650 HOLLYWOOD AVENUE, BRONX, NY, 10465",Community School MH,40.8269794,-73.8182885
268,Longwood Preparatory Academy,"965 LONGWOOD AVENUE, BRONX, NY, 10459",Community School MH,40.8178276,-73.8978152
269,Westchester Square Academy,"3000 EAST TREMONT AVENUE, BRONX, NY, 10461",School-based Health Center w/ Mental Health,40.8398166,-73.83795490000001
270,School for Tourism and Hospitality,"900 TINTON AVENUE, BRONX, NY, 10456",School-based Health Center w/ Mental Health,40.8217522,-73.9027181
271,Bronx Compass High School,"1980 LAFAYETTE AVENUE, BRONX, NY, 10473",School-based Health Center w/ Mental Health,40.8211936,-73.856527
272,Blueprint Middle School,"1111 PUGSLEY AVENUE, BRONX, NY, 10472",School Mental Health Specialist Program,40.8291079,-73.85691039999999
273,J.H.S. 022 Jordan L. Mott,"270 EAST 167 STREET, BRONX, NY, 10456",Community School MH,40.8323844,-73.9142127
274,P.S. 028 Mount Hope,"1861 ANTHONY AVENUE, BRONX, NY, 10457",School-based Health Center w/ Mental Health,40.8483324,-73.9036117
275,P.S. 035 Franz Siegel,"261 EAST 163 STREET, BRONX, NY, 10451",School Mental Health Specialist Program,40.8275639,-73.9179413
276,P.S. 042 Claremont,"1537 WASHINGTON AVENUE, BRONX, NY, 10457",Community School MH,40.8386133,-73.9030516
277,P.S. 055 Benjamin Franklin,"450 SAINT PAUL'S PLACE, BRONX, NY, 10456",Community School MH,40.8360107,-73.9049407
278,P.S. 063 Author's Academy,"1260 FRANKLIN AVENUE, BRONX, NY, 10456",School Mental Health Specialist Program,40.8308954,-73.9023857
279,P.S. 070 Max Schoenfeld,"1691 WEEKS AVENUE, BRONX, NY, 10457",School Mental Health Specialist Program,40.844366,-73.9078731
280,P.S. 109 Sedgwick,"1771 POPHAM AVENUE, BRONX, NY, 10453",School Mental Health Specialist Program,40.8517883,-73.91862069999999
281,P.S. X114 - Luis Llorens Torres Schools,"1155 CROMWELL AVENUE, BRONX, NY, 10452",School Mental Health Specialist Program,40.8349464,-73.92326070000001
282,I.S. 117 Joseph H. Wade,"1865 MORRIS AVENUE, BRONX, NY, 10453",Community School MH,40.8485816,-73.9087503
283,P.S. 126 Dr Marjorie H Dunbar,"175 WEST 166 STREET, BRONX, NY, 10452",School-based Health Center w/ Mental Health,40.836097,-73.9283585
284,Mott Hall III,"580 CROTONA PARK SOUTH, BRONX, NY, 10456",School Mental Health Specialist Program,40.8350416,-73.9004334
285,P.S. 199X - The Shakespeare School,"1449 SHAKESPEARE AVENUE, BRONX, NY, 10452",School-based Health Center w/ Mental Health,40.8436596,-73.92059680000001
286,P.S. 204 Morris Heights,"1780 DR. MARTIN LUTHER KING JR. BLVD, BRONX, NY, 10453",School Mental Health Specialist Program,40.8500841,-73.9151313
287,Kappa,"3630 THIRD AVENUE, BRONX, NY, 10456",School-based Health Center w/ Mental Health,40.8338446,-73.9039243
288,P.S./I.S. 218 Rafael Hernandez Dual Language Magnet School,"1220 GERARD AVENUE, BRONX, NY, 10452",School Mental Health Specialist Program,40.8354825,-73.91972419999999
289,I.S. 219 New Venture School,"3630 THIRD AVENUE, BRONX, NY, 10456",Community School MH,40.8338446,-73.9039243
290,Bronx Collegiate Academy,"240 EAST 172 STREET, BRONX, NY, 10457",Community School MH,40.8397925,-73.9113057
291,I.S. 229 Roland Patterson,"275 HARLEM RIVER PARK BRIDGE, BRONX, NY, 10453",School Mental Health Specialist Program,40.8526349,-73.9212701
292,Eagle Academy for Young Men,"4143 THIRD AVENUE, BRONX, NY, 10457",Prevention Intervention Program MH,40.845289,-73.8972161
293,I.S. 232,"1700 MACOMBS ROAD, BRONX, NY, 10453",School-based Health Center w/ Mental Health,40.8494924,-73.9156962
294,Eximius College Preparatory Academy: A College Board School,"1363 FULTON AVENUE, BRONX, NY, 10456",School Mental Health Specialist Program,40.8339721,-73.9027472
295,Mott Hall Bronx High School,"1595 BATHGATE AVENUE, BRONX, NY, 10457",School Mental Health Specialist Program,40.8394008,-73.9019661
296,Bronx Center for Science and Mathematics,"1363 FULTON AVENUE, BRONX, NY, 10456",School Mental Health Specialist Program,40.8339721,-73.9027472
297,Validus Preparatory Academy,"1595 BATHGATE AVENUE, BRONX, NY, 10457",School Mental Health Specialist Program,40.8394008,-73.9019661
298,The New American Academy at Roberto Clemente State Park,"275 HARLEM RIVER PARK BRIDGE, BRONX, NY, 10453",School Mental Health Specialist Program,40.8526349,-73.9212701
299,The Walton Avenue School,"1425 WALTON AVENUE, BRONX, NY, 10452",Community School MH,40.8403454,-73.91572839999999
300,Morris Academy for Collaborative Studies,"1110 BOSTON ROAD, BRONX, NY, 10456",Community School MH,40.8273033,-73.9045097
301,I.S. X303 Leadership & Community Service,"1700 MACOMBS ROAD, BRONX, NY, 10453",School-based Health Center w/ Mental Health,40.8494924,-73.9156962
302,Lucero Elementary School,"1425 WALTON AVENUE, BRONX, NY, 10452",Community School MH,40.8403454,-73.91572839999999
303,I.S. 313 School of Leadership Development,"1600 WEBSTER AVENUE, BRONX, NY, 10457",Community School MH,40.8404716,-73.9039243
304,Bronx Writing Academy,"270 EAST 167 STREET, BRONX, NY, 10456",School-based Mental Health Clinic,40.8323844,-73.9142127
305,Bronx Early College Academy for Teaching & Learning,"250 EAST 164 STREET, BRONX, NY, 10456",Community School MH,40.8280778,-73.91751959999999
306,Comprehensive Model School Project M.S. 327,"1501 JEROME AVENUE, BRONX, NY, 10452",School-based Health Center w/ Mental Health,40.8429988,-73.9162336
307,New Millennium Bronx Academy of the Arts,"1000 TELLER AVENUE, BRONX, NY, 10456",Community School MH,40.8279,-73.9141928
308,DreamYard Preparatory School,"240 EAST 172 STREET, BRONX, NY, 10457",Community School MH,40.8397925,-73.9113057
309,I.S. 339,"1600 WEBSTER AVENUE, BRONX, NY, 10457",Community School MH,40.8404716,-73.9039243
310,New Directions Secondary School,"240 EAST 172 STREET, BRONX, NY, 10457",School-based Health Center w/ Mental Health,40.8397925,-73.9113057
311,Academy for Language and Technology,"1700 MACOMBS ROAD, BRONX, NY, 10453",School-based Health Center w/ Mental Health,40.8494924,-73.9156962
312,Bronx International High School,"1110 BOSTON ROAD, BRONX, NY, 10456",School-based Health Center w/ Mental Health,40.8273033,-73.9045097
313,School for Excellence,"1110 BOSTON ROAD, BRONX, NY, 10456",School-based Health Center w/ Mental Health,40.8273033,-73.9045097
314,Bronx High School of Business,"240 EAST 172 STREET, BRONX, NY, 10457",Community School MH,40.8397925,-73.9113057
315,Bronx High School for Medical Science,"240 EAST 172 STREET, BRONX, NY, 10457",School-based Health Center w/ Mental Health,40.8397925,-73.9113057
316,The Family School,"1116 SHERIDAN AVENUE, BRONX, NY, 10456",School Mental Health Specialist Program,40.8321305,-73.9175656
317,Grant Avenue Elementary School,"250 EAST 164 STREET, BRONX, NY, 10456",School-based Health Center w/ Mental Health,40.8280778,-73.91751959999999
318,Science and Technology Academy: A Mott Hall School,"250 EAST 164 STREET, BRONX, NY, 10456",School-based Health Center w/ Mental Health,40.8280778,-73.91751959999999
319,Sheridan Academy for Young Leaders,"1116 SHERIDAN AVENUE, BRONX, NY, 10456",School Mental Health Specialist Program,40.8321305,-73.9175656
320,"Bronx School for Law, Government and Justice","244 EAST 163 STREET, BRONX, NY, 10451",School Mental Health Specialist Program,40.827572,-73.9189269
321,Frederick Douglass Academy III Secondary School,"3630 THIRD AVENUE, BRONX, NY, 10456",Community School MH,40.8338446,-73.9039243
322,Bronx Leadership Academy High School,"1710 WEBSTER AVENUE, BRONX, NY, 10457",Community School MH,40.8434287,-73.90310939999999
323,High School for Violin and Dance,"1110 BOSTON ROAD, BRONX, NY, 10456",School-based Health Center w/ Mental Health,40.8273033,-73.9045097
324,Mount Eden Children's Academy,"1501 JEROME AVENUE, BRONX, NY, 10452",School-based Health Center w/ Mental Health,40.8429988,-73.9162336
325,Claremont International HS,"240 EAST 172 STREET, BRONX, NY, 10457",School-based Health Center w/ Mental Health,40.8397925,-73.9113057
326,Young Women's Leadership School of the Bronx,"1865 MORRIS AVENUE, BRONX, NY, 10453",School-based Mental Health Clinic,40.8485816,-73.9087503
327,South Bronx International Middle School,"1000 TELLER AVENUE, BRONX, NY, 10456",Community School MH,40.8279,-73.9141928
328,M.S. 594,"1000 TELLER AVENUE, BRONX, NY, 10456",Community School MH,40.8279,-73.9141928
329,P.S. 3 Raul Julia Micro Society,"2100 LAFONTAINE AVENUE, BRONX, NY, 10457",School Mental Health Specialist Program,40.8502515,-73.8917519
330,Milton Fein School,"3201 KINGSBRIDGE AVENUE, BRONX, NY, 10463",School-based Mental Health Clinic,40.8817779,-73.9059814
331,P.S. 008 Isaac Varian,"3010 BRIGGS AVENUE, BRONX, NY, 10458",School-based Health Center w/ Mental Health,40.8725473,-73.88336
332,P.S. X015 Institute for Environmental Learning,"2195 ANDREWS AVENUE, BRONX, NY, 10453",School Mental Health Specialist Program,40.8591846,-73.9098035
333,"PS/MS 20 P.O.George J. Werdann, III","3050 WEBSTER AVENUE, BRONX, NY, 10467",School Response Team,40.8696205,-73.87907349999999
334,P.S. 023 The New Children's School,"2151 WASHINGTON AVENUE, BRONX, NY, 10457",School Mental Health Specialist Program,40.8533809,-73.8947836
335,P.S. 032 Belmont,"690 EAST 183 STREET, BRONX, NY, 10458",School-based Mental Health Clinic,40.8518895,-73.88596410000001
336,P.S. X037 - Multiple Intelligence School,"360 WEST 230 STREET, BRONX, NY, 10463",School Mental Health Specialist Program,40.8797629,-73.9107403
337,Thomas C. Giordano Middle School 45,"2502 LORILLARD PLACE, BRONX, NY, 10458",School-based Health Center w/ Mental Health,40.8583625,-73.8870429
338,P.S. 059 The Community School of Technology,"2185 BATHGATE AVENUE, BRONX, NY, 10457",School Mental Health Specialist Program,40.853105,-73.8935685
339,J.H.S. 080 The Mosholu Parkway,"149 EAST MOSHOLU PKWY N, BRONX, NY, 10467",Community School MH,40.8768024,-73.8813704
340,P.S. 085 Great Expectations,"2400 MARION AVENUE, BRONX, NY, 10458",Community School MH,40.8587862,-73.8948755
341,P.S. 095 Sheila Mencher,"3961 HILLMAN AVENUE, BRONX, NY, 10463",School-based Health Center w/ Mental Health,40.8830979,-73.8914763
342,J.H.S. 118 William W. Niles,"577 EAST 179 STREET, BRONX, NY, 10457",School-based Mental Health Clinic,40.8485715,-73.892395
343,Riverdale / Kingsbridge Academy (Middle School / High School 141),"660 West 237 Street, Bronx, NY, 10463",Prevention Intervention Program MH,40.8875496,-73.9137535
344,P.S. 205 Fiorello LaGuardia,"2475 SOUTHERN BOULEVARD, BRONX, NY, 10458",School-based Mental Health Clinic,40.8557006,-73.8813704
345,I.S. 206 Ann Mersereau,"2280 AQUEDUCT AVENUE, BRONX, NY, 10468",School Mental Health Specialist Program,40.8595656,-73.9062668
346,Bronx Engineering and Technology Academy,"99 TERRACE VIEW AVENUE, BRONX, NY, 10463",School-based Health Center w/ Mental Health,40.8771585,-73.9126759
347,Theatre Arts Production Company School,"2225 WEBSTER AVENUE, BRONX, NY, 10457",School-based Health Center w/ Mental Health,40.8546548,-73.8970362
348,P.S. 226,"1950 SEDGWICK AVENUE, BRONX, NY, 10453",School Mental Health Specialist Program,40.855172,-73.9162336
349,Jonas Bronck Academy,"400 EAST FORDHAM ROAD, BRONX, NY, 10458",School Response Team,40.8608844,-73.89191029999999
350,"The Marie Curie School for Medicine, Nursing, and Health Professions","120 WEST 231 STREET, BRONX, NY, 10463",School-based Health Center w/ Mental Health,40.8755907,-73.9017195
351,West Bronx Academy for the Future,"500 EAST FORDHAM ROAD, BRONX, NY, 10458",School-based Health Center w/ Mental Health,40.8594021,-73.88867429999999
352,The New School for Leadership and Journalism,"120 WEST 231 STREET, BRONX, NY, 10463",School-based Health Center w/ Mental Health,40.8755907,-73.9017195
353,I.S. 254,"2452 WASHINGTON AVENUE, BRONX, NY, 10458",School Response Team,40.8588883,-73.8898494
354,Bronx Academy for Software Engineering (BASE),"2474 CROTONA AVENUE, BRONX, NY, 10458",School-based Health Center w/ Mental Health,40.8554112,-73.8824863
355,Kingsbridge International High School,"2780 RESERVOIR AVENUE, BRONX, NY, 10468",School-based Health Center w/ Mental Health,40.8704171,-73.8969711
356,"P.S. 279 Captain Manuel Rivera, Jr.","2100 WALTON AVENUE, BRONX, NY, 10453",School-based Health Center w/ Mental Health,40.8547601,-73.90498070000001
357,P.S./M.S. 280 Mosholu Parkway,"3202 STEUBEN AVENUE, BRONX, NY, 10467",School-based Mental Health Clinic,40.8772137,-73.8815541
358,Bronx School of Law and Finance,"99 TERRACE VIEW AVENUE, BRONX, NY, 10463",School-based Health Center w/ Mental Health,40.8771585,-73.9126759
359,P.S. 306,"40 WEST TREMONT AVENUE, BRONX, NY, 10453",School-based Health Center w/ Mental Health,40.8513941,-73.9108139
360,Bronx Dance Academy School,"3617 BAINBRIDGE AVENUE, BRONX, NY, 10467",School Mental Health Specialist Program,40.8854146,-73.8780629
361,P.S. 315 Lab School,"2865 CLAFLIN AVENUE, BRONX, NY, 10468",School Mental Health Specialist Program,40.87362230000001,-73.89986750000001
362,The Bronx School of Young Leaders,"40 WEST TREMONT AVENUE, BRONX, NY, 10453",Community School MH,40.8513941,-73.9108139
363,International School for Liberal Arts,"2780 RESERVOIR AVENUE, BRONX, NY, 10468",School-based Health Center w/ Mental Health,40.8704171,-73.8969711
364,Ampark Neighborhood,"3961 HILLMAN AVENUE, BRONX, NY, 10463",School-based Health Center w/ Mental Health,40.8830979,-73.8914763
365,Bronx Collaborative High School,"100 WEST MOSHOLU PARKWAY SOUTH, BRONX, NY, 10468",School-based Health Center w/ Mental Health,40.8812165,-73.8875851
366,World View High School,"100 WEST MOSHOLU PARKWAY SOUTH, BRONX, NY, 10468",School-based Health Center w/ Mental Health,40.8812165,-73.8875851
367,Academy For Personal Leadership And Excellence,"120 EAST 184 STREET, BRONX, NY, 10468",Community School MH,40.8594929,-73.9004606
368,In-Tech Academy (M.S. / High School 368),"2975 TIBBETT AVENUE, BRONX, NY, 10463",School-based Health Center w/ Mental Health,40.8790763,-73.91129529999999
369,Knowledge and Power Preparatory Academy International High School (Kappa),"500 EAST FORDHAM ROAD, BRONX, NY, 10458",School-based Health Center w/ Mental Health,40.8594021,-73.88867429999999
370,"Elementary School for Math, Science, and Technology","125 EAST 181 STREET, BRONX, NY, 10453",School-based Health Center w/ Mental Health,40.8556664,-73.90323529999999
371,School for Environmental Citizenship,"125 EAST 181 STREET, BRONX, NY, 10453",School-based Health Center w/ Mental Health,40.8556664,-73.90323529999999
372,M.S. 390,"1930 ANDREWS AVENUE, BRONX, NY, 10453",School-based Health Center w/ Mental Health,40.854392,-73.9129267
373,The Angelo Patri Middle School,"2225 WEBSTER AVENUE, BRONX, NY, 10457",Community School MH,40.8546548,-73.8970362
374,P.S. 396,"1930 ANDREWS AVENUE, BRONX, NY, 10453",School-based Health Center w/ Mental Health,40.854392,-73.9129267
375,English Language Learners and International Support Preparatory Academy (ELLIS),"99 TERRACE VIEW AVENUE, BRONX, NY, 10463",School-based Health Center w/ Mental Health,40.8771585,-73.9126759
376,High School for Teaching and the Professions,"2780 RESERVOIR AVENUE, BRONX, NY, 10468",Community School MH,40.8704171,-73.8969711
377,Belmont Preparatory High School,"500 EAST FORDHAM ROAD, BRONX, NY, 10458",School-based Health Center w/ Mental Health,40.8594021,-73.88867429999999
378,Fordham High School for the Arts,"500 EAST FORDHAM ROAD, BRONX, NY, 10458",School-based Health Center w/ Mental Health,40.8594021,-73.88867429999999
379,Fordham Leadership Academy,"500 EAST FORDHAM ROAD, BRONX, NY, 10458",Community School MH,40.8594021,-73.88867429999999
380,Bronx High School for Law and Community Service,"500 EAST FORDHAM ROAD, BRONX, NY, 10458",School-based Health Center w/ Mental Health,40.8594021,-73.88867429999999
381,DeWitt Clinton High School,"100 WEST MOSHOLU PARKWAY SOUTH, BRONX, NY, 10468",Community School MH,40.8812165,-73.8875851
382,"Celia Cruz Bronx High School of Music, The","2780 RESERVOIR AVENUE, BRONX, NY, 10468",School-based Health Center w/ Mental Health,40.8704171,-73.8969711
383,The Bronx High School of Science,"75 WEST 205 STREET, BRONX, NY, 10468",School-based Mental Health Clinic,40.8785082,-73.8908792
384,Creston Academy,"125 EAST 181 STREET, BRONX, NY, 10453",School-based Health Center w/ Mental Health,40.8556664,-73.90323529999999
385,Marble Hill High School for International Studies,"99 TERRACE VIEW AVENUE, BRONX, NY, 10463",School-based Health Center w/ Mental Health,40.8771585,-73.9126759
386,Crotona International High School,"2474 CROTONA AVENUE, BRONX, NY, 10458",School-based Health Center w/ Mental Health,40.8554112,-73.8824863
387,Bronx Theatre High School,"99 TERRACE VIEW AVENUE, BRONX, NY, 10463",School-based Health Center w/ Mental Health,40.8771585,-73.9126759
388,Discovery High School,"2780 RESERVOIR AVENUE, BRONX, NY, 10468",School-based Health Center w/ Mental Health,40.8704171,-73.8969711
389,High School for Energy and Technology,"2474 CROTONA AVENUE, BRONX, NY, 10458",School-based Health Center w/ Mental Health,40.8554112,-73.8824863
390,High School of American Studies at Lehman College,"2925 GOULDEN AVENUE, BRONX, NY, 10468",School-based Mental Health Clinic,40.8746796,-73.8950763
391,P.S. 019 Judith K. Weiss,"311 East 237th Street, Bronx, NY, 10470",School Mental Health Specialist Program,40.89906939999999,-73.86725969999999
392,P.S. 041 Gun Hill Road,"3352 OLINVILLE AVENUE, BRONX, NY, 10467",School-based Mental Health Clinic,40.8746073,-73.86791029999999
393,P.S. 083 Donald Hertz,"950 RHINELANDER AVENUE, BRONX, NY, 10462",School-based Mental Health Clinic,40.8492587,-73.85886099999999
394,P.S. 089 Bronx,"980 MACE AVENUE, BRONX, NY, 10469",School Mental Health Specialist Program,40.8626481,-73.8594112
395,P.S. 105 Sen Abraham Bernstein,"725 BRADY AVENUE, BRONX, NY, 10462",School-based Health Center w/ Mental Health,40.8527674,-73.8664014
396,P.S. 112 Bronxwood,"1925 SCHIEFFELIN AVENUE, BRONX, NY, 10466",Community School MH,40.8847649,-73.8439899
397,J.H.S. 127 The Castle Hill,"1560 PURDY STREET, BRONX, NY, 10462",School Response Team,40.8384278,-73.8529844
398,J.H.S. 144 Michelangelo,"2545 GUNTHER AVENUE, BRONX, NY, 10469",School Mental Health Specialist Program,40.864189,-73.8365765
399,P.S. 175 City Island,"200 CITY ISLAND AVENUE, BRONX, NY, 10464",School Mental Health Specialist Program,40.84379,-73.7846911
400,M.S. 180 Dr. Daniel Hale Williams,"700 BAYCHESTER AVENUE, BRONX, NY, 10475",School Mental Health Specialist Program,40.8732692,-73.831706
401,I.S. 181 Pablo Casals,"800 BAYCHESTER AVENUE, BRONX, NY, 10475",School Mental Health Specialist Program,40.874963,-73.831706
402,Cornerstone Academy for Social Action,"3441 STEENWICK AVENUE, BRONX, NY, 10475",School-based Mental Health Clinic,40.8831455,-73.83078700000002
403,P.S./M.S. 194,"2365 WATERBURY AVENUE, BRONX, NY, 10462",School Mental Health Specialist Program,40.8351995,-73.8465928
404,Bronx Health Sciences High School,"750 BAYCHESTER AVENUE, BRONX, NY, 10475",School-based Health Center w/ Mental Health,40.8741149,-73.83285459999999
405,Bronx High School for Writing and Communication Arts,"800 EAST GUN HILL ROAD, BRONX, NY, 10467",School-based Health Center w/ Mental Health,40.8751267,-73.8617246
406,Bronx Lab School,"800 EAST GUN HILL ROAD, BRONX, NY, 10467",School-based Health Center w/ Mental Health,40.8751267,-73.8617246
407,Academy for Scholarship and Entrepreneurship: A College Board School,"921 EAST 228TH STREET, BRONX, NY, 10466",School-based Health Center w/ Mental Health,40.8880644,-73.8527494
408,High School of Computers and Technology,"800 EAST GUN HILL ROAD, BRONX, NY, 10467",School-based Health Center w/ Mental Health,40.8751267,-73.8617246
409,North Bronx School of Empowerment,"3710 BARNES AVENUE, BRONX, NY, 10467",Community School MH,40.8808122,-73.8605855
410,Collegiate Institute for Math and Science,"925 ASTOR AVENUE, BRONX, NY, 10469",School-based Health Center w/ Mental Health,40.8602833,-73.8603759
411,Bronx Academy of Health Careers,"800 EAST GUN HILL ROAD, BRONX, NY, 10467",School-based Health Center w/ Mental Health,40.8751267,-73.8617246
412,Astor Collegiate Academy,"925 ASTOR AVENUE, BRONX, NY, 10469",School-based Health Center w/ Mental Health,40.8602833,-73.8603759
413,Bronx Green Middle School,"2441 WALLACE AVENUE, BRONX, NY, 10467",School Mental Health Specialist Program,40.8624813,-73.8649701
414,Bronx Alliance Middle School,"3750 BAYCHESTER AVENUE, BRONX, NY, 10466",School-based Health Center w/ Mental Health,40.8861491,-73.8404879
415,Young Voices Academy of the Bronx,"800 LYDIG AVENUE, BRONX, NY, 10462",School-based Mental Health Clinic,40.854327,-73.8636587
416,Leaders of Tomorrow,"3710 BARNES AVENUE, BRONX, NY, 10467",Community School MH,40.8808122,-73.8605855
417,Bronx High School for the Visual Arts,"2040 ANTIN PL, BRONX, NY, 10462",School Mental Health Specialist Program,40.8517357,-73.8644905
418,Harry S Truman High School,"750 BAYCHESTER AVENUE, BRONX, NY, 10475",School-based Health Center w/ Mental Health,40.8741149,-73.83285459999999
419,Cornerstone Academy for Social Action Middle School (CASA),"3441 STEENWICK AVENUE, BRONX, NY, 10475",School-based Mental Health Clinic,40.8831455,-73.83078700000002
420,Pelham Academy of Academics and Community Engagement,"2441 WALLACE AVENUE, BRONX, NY, 10467",School Mental Health Specialist Program,40.8624813,-73.8649701
421,P.S./M.S. 11X498 - Van Nest Academy,"1640 BRONXDALE AVE, BRONX, NY, 10462",School Mental Health Specialist Program,40.8449981,-73.8579869
422,Bronxdale High School,"925 ASTOR AVENUE, BRONX, NY, 10469",School-based Health Center w/ Mental Health,40.8602833,-73.8603759
423,High School of Language and Innovation,"925 ASTOR AVENUE, BRONX, NY, 10469",School-based Health Center w/ Mental Health,40.8602833,-73.8603759
424,New World High School,"921 EAST 228TH STREET, BRONX, NY, 10466",School-based Health Center w/ Mental Health,40.8880644,-73.8527494
425,The Bronxwood Preparatory Academy,"921 EAST 228TH STREET, BRONX, NY, 10466",School-based Health Center w/ Mental Health,40.8880644,-73.8527494
426,One World Middle School at Edenwald,"3750 BAYCHESTER AVENUE, BRONX, NY, 10466",School-based Health Center w/ Mental Health,40.8861491,-73.8404879
427,Baychester Middle School,"3750 BAYCHESTER AVENUE, BRONX, NY, 10466",School-based Health Center w/ Mental Health,40.8861491,-73.8404879
428,Pelham Preparatory Academy,"925 ASTOR AVENUE, BRONX, NY, 10469",School-based Health Center w/ Mental Health,40.8602833,-73.8603759
429,High School for Contemporary Arts,"800 EAST GUN HILL ROAD, BRONX, NY, 10467",School-based Health Center w/ Mental Health,40.8751267,-73.8617246
430,Bronx Aerospace High School,"800 EAST GUN HILL ROAD, BRONX, NY, 10467",School-based Health Center w/ Mental Health,40.8751267,-73.8617246
431,Bronx Park Middle School,"2441 WALLACE AVENUE, BRONX, NY, 10467",School Mental Health Specialist Program,40.8624813,-73.8649701
432,Pelham Gardens Middle School,"2545 GUNTHER AVENUE, BRONX, NY, 10469",School Mental Health Specialist Program,40.864189,-73.8365765
433,P.S. 006 West Farms,"1000 EAST TREMONT AVENUE, BRONX, NY, 10460",School Mental Health Specialist Program,40.84056630000001,-73.882082
434,P.S. 061 Francisco Oller,"1550 CROTONA PARK EAST, BRONX, NY, 10460",School-based Mental Health Clinic,40.8363733,-73.8927625
435,P.S. 066 School of Higher Expectations,"1001 JENNINGS STREET, BRONX, NY, 10460",School-based Health Center w/ Mental Health,40.8312555,-73.8866072
436,J.H.S. 098 Herman Ridder,"1619 BOSTON ROAD, BRONX, NY, 10460",School-based Health Center w/ Mental Health,40.8363157,-73.8907414
437,M.S. 129 Academy for Independent Learning and Leadership,"2055 MAPES AVENUE, BRONX, NY, 10460",School Response Team,40.8460475,-73.88632179999999
438,P.S. 150 Charles James Fox,"920 EAST 167 STREET, BRONX, NY, 10459",School Mental Health Specialist Program,40.8259126,-73.8942782
439,E.S.M.T- I.S. 190,"1550 CROTONA PARK EAST, BRONX, NY, 10460",School-based Mental Health Clinic,40.8363733,-73.8927625
440,P.S. 211,"1919 PROSPECT AVENUE, BRONX, NY, 10457",Community School MH,40.8437691,-73.8903279
441,P.S. 214,"1970 WEST FARMS ROAD, BRONX, NY, 10460",School Mental Health Specialist Program,40.83941,-73.8801376
442,School of Performing Arts,"977 FOX STREET, BRONX, NY, 10459",Community School MH,40.8220835,-73.8940382
443,Mott Hall V,"1551 EAST 172ND STREET, BRONX, NY, 10472",Prevention Intervention Program MH,40.8318874,-73.8772819
444,"Metropolitan High School, The","1180 REV. J.A. POLITE AVE., BRONX, NY, 10459",Community School MH,40.82773299999999,-73.897018
445,Explorations Academy H.S.,"1619 BOSTON ROAD, BRONX, NY, 10460",School-based Health Center w/ Mental Health,40.8363157,-73.8907414
446,Bronx Latin,"800 HOME STREET, BRONX, NY, 10456",School-based Health Center w/ Mental Health,40.8273875,-73.9008013
447,East Bronx Academy for the Future,"1716 SOUTHERN BOULEVARD, BRONX, NY, 10460",Community School MH,40.8368071,-73.8877096
448,Frederick Douglass Academy V. Middle School,"2111 CROTONA AVENUE, BRONX, NY, 10457",School Mental Health Specialist Program,40.84868900000001,-73.8889039
449,Fannie Lou Hamer Middle School,"1001 JENNINGS STREET, BRONX, NY, 10460",Community School MH,40.8312555,-73.8866072
450,The School of Science and Applied Learning,"2050 PROSPECT AVENUE, BRONX, NY, 10457",School Mental Health Specialist Program,40.8458286,-73.88710739999999
451,Kappa III,"2055 MAPES AVENUE, BRONX, NY, 10460",School Mental Health Specialist Program,40.8460475,-73.88632179999999
452,Accion Academy,"977 FOX STREET, BRONX, NY, 10459",Community School MH,40.8220835,-73.8940382
453,Emolior Academy,"1970 WEST FARMS ROAD, BRONX, NY, 10460",School Mental Health Specialist Program,40.83941,-73.8801376
454,Pan American International High School at Monroe,"1300 BOYNTON AVENUE, BRONX, NY, 10472",School-based Health Center w/ Mental Health,40.8325896,-73.8784878
455,Arturo A. Schomburg Satellite Academy Bronx,"1010 REV. J. A. POLITE AVENUE, BRONX, NY, 10459",School-based Health Center w/ Mental Health,40.8232858,-73.89873419999999
456,Urban Scholars Community School,"1180 TINTON AVENUE, BRONX, NY, 10456",Community School MH,40.8286698,-73.9000659
457,The Cinema School,"1551 EAST 172ND STREET, BRONX, NY, 10472",School-based Health Center w/ Mental Health,40.8318874,-73.8772819
458,Bronx Career and College Preparatory High School,"800 HOME STREET, BRONX, NY, 10456",Community School MH,40.8273875,-73.9008013
459,Bronx Regional High School,"1010 REV. J. A. POLITE AVENUE, BRONX, NY, 10459",School-based Health Center w/ Mental Health,40.8232858,-73.89873419999999
460,Bronx Envision Academy,"1619 BOSTON ROAD, BRONX, NY, 10460",School-based Health Center w/ Mental Health,40.8363157,-73.8907414
461,The Metropolitan Soundview High School,"1300 BOYNTON AVENUE, BRONX, NY, 10472",School-based Health Center w/ Mental Health,40.8325896,-73.8784878
462,High School of World Cultures,"1300 BOYNTON AVENUE, BRONX, NY, 10472",School-based Health Center w/ Mental Health,40.8325896,-73.8784878
463,P.S. 595,"700 EAST 179 STREET, BRONX, NY, 10457",Community School MH,40.8462893,-73.8893633
464,Wings Academy,"1122 EAST 180 STREET, BRONX, NY, 10460",School Mental Health Specialist Program,40.8413652,-73.8752636
465,P.S. 003 The Bedford Village,"50 JEFFERSON AVENUE, BROOKLYN, NY, 11216",H+H School,40.6823893,-73.9553153
466,Public School 9 The Sarah Smith Garnet School,"80 UNDERHILL AVENUE, BROOKLYN, NY, 11238",H+H School,40.6784354,-73.96583059999999
467,P.S. 011 Purvis J. Behan,"419 WAVERLY AVENUE, BROOKLYN, NY, 11238",H+H School,40.6854357,-73.9658766
468,P.S. 020 Clinton Hill,"225 ADELPHI STREET, BROOKLYN, NY, 11205",School-based Mental Health Clinic,40.6912212,-73.9712066
469,P.S. 044 Marcus Garvey,"432 MONROE STREET, BROOKLYN, NY, 11221",H+H School,40.68628830000001,-73.940896
470,P.S. 054 Samuel C. Barnes,"195 SANDFORD STREET, BROOKLYN, NY, 11205",H+H School,40.6926096,-73.9527438
471,P.S. 056 Lewis H. Latimer,"170 GATES AVENUE, BROOKLYN, NY, 11238",H+H School,40.6842985,-73.9603205
472,P.S. 067 Charles A. Dorsey,"51 SAINT EDWARDS STREET, BROOKLYN, NY, 11205",Community School MH,40.6951863,-73.97767689999999
473,P.S. 093 William H. Prescott,"31 NEW YORK AVENUE, BROOKLYN, NY, 11216",H+H School,40.6789776,-73.9465065
474,M.S. 113 Ronald Edmonds Learning Center,"300 ADELPHI STREET, BROOKLYN, NY, 11205",H+H School,40.6888586,-73.971716
475,Dr. Susan S. McKinney Secondary School of the Arts,"101 PARK AVENUE, BROOKLYN, NY, 11205",H+H School,40.6967968,-73.9760706
476,M.S. K266 - Park Place Community Middle School,"62 PARK PLACE, BROOKLYN, NY, 11217",H+H School,40.6787211,-73.9763369
477,P.S. 282 Park Slope,"180 6 AVENUE, BROOKLYN, NY, 11217",School-based Mental Health Clinic,40.6766719,-73.977631
478,Satellite East Middle School,"31 NEW YORK AVENUE, BROOKLYN, NY, 11216",Community School MH,40.6789776,-73.9465065
479,P.S. 307 Daniel Hale Williams,"209 YORK STREET, BROOKLYN, NY, 11201",School-based Mental Health Clinic,40.701462,-73.98141609999999
480,Dock Street School for STEAM Studies,"19 DOCK STREET, BROOKLYN, NY, 11201",School-based Mental Health Clinic,40.7030848,-73.9922313
481,Urban Assembly School of Music and Art,"49 FLATBUSH AVENUE EXTENSION, BROOKLYN, NY, 11201",School-based Mental Health Clinic,40.6973489,-73.98474759999999
482,The Urban Assembly Unison School,"170 GATES AVENUE, BROOKLYN, NY, 11238",School Mental Health Specialist Program,40.6842985,-73.9603205
483,Brooklyn Community Arts & Media High School (BCAM),"300 WILLOUGHBY AVENUE, BROOKLYN, NY, 11205",Community School MH,40.6917732,-73.9584849
484,"Science Skills Center High School for Science, Technology and the Creative Arts","49 FLATBUSH AVENUE EXTENSION, BROOKLYN, NY, 11201",School-based Mental Health Clinic,40.6973489,-73.98474759999999
485,Brooklyn Technical High School,"29 FT GREENE PLACE, BROOKLYN, NY, 11217",School Mental Health Specialist Program,40.6889184,-73.97648699999999
486,Brooklyn International High School,"49 FLATBUSH AVENUE EXTENSION, BROOKLYN, NY, 11201",School-based Mental Health Clinic,40.6973489,-73.98474759999999
487,The Urban Assembly School for Law and Justice,"283 ADAMS STREET, BROOKLYN, NY, 11201",School-based Mental Health Clinic,40.6946321,-73.9884265
488,Academy of Arts and Letters,"344 MONROE STREET, BROOKLYN, NY, 11216",H+H School,40.6859446,-73.94530329999999
489,Urban Assembly Institute of Math and Science for Young Women,"283 ADAMS STREET, BROOKLYN, NY, 11201",School-based Mental Health Clinic,40.6946321,-73.9884265
490,Brooklyn Academy High School,"832 MARCY AVENUE, BROOKLYN, NY, 11216",H+H School,40.6844639,-73.9483771
491,Gotham Professional Arts Academy,"561 GRAND AVENUE, BROOKLYN, NY, 11238",School Mental Health Specialist Program,40.6785204,-73.9617427
492,Bedford Academy High School,"1119 BEDFORD AVENUE, BROOKLYN, NY, 11216",H+H School,40.6855293,-73.9540295
493,Benjamin Banneker Academy,"71-77 CLINTON AVENUE, BROOKLYN, NY, 11205",School-based Health Center w/ Mental Health,40.6956408,-73.969318
494,Fort Greene Preparatory Academy,"100 CLERMONT AVENUE, BROOKLYN, NY, 11205",H+H School,40.6948636,-73.9717309
495,District 13 PRE-K Center,"19 DOCK STREET, BROOKLYN, NY, 11201",School-based Mental Health Clinic,40.7030848,-73.9922313
496,I.S. 915,"105 TECH PLACE, BROOKLYN, NY, 11201",School Mental Health Specialist Program,40.6955452,-73.985323
497,P.S. 018 Edward Bush,"101 MAUJER STREET, BROOKLYN, NY, 11206",School Mental Health Specialist Program,40.7108288,-73.9469101
498,P.S. 023 Carter G. Woodson,"545 WILLOUGHBY AVENUE, BROOKLYN, NY, 11206",School Mental Health Specialist Program,40.6941963,-73.9474627
499,J.H.S. 050 John D. Wells,"183 SOUTH 3 STREET, BROOKLYN, NY, 11211",Community School MH,40.7117745,-73.9596149
500,Juan Morel Campos Secondary School,"215 HEYWARD STREET, BROOKLYN, NY, 11206",Community School MH,40.7039101,-73.9537081
501,P.S. 084 Jose De Diego,"250 Berry Street, Brooklyn, NY, 11249",School Mental Health Specialist Program,40.7148137,-73.9633052
502,P.S. 120 Carlos Tapia,"18 BEAVER STREET, BROOKLYN, NY, 11206",School Mental Health Specialist Program,40.7007468,-73.9376826
503,John Ericsson Middle School 126,"424 LEONARD STREET, BROOKLYN, NY, 11222",Community School MH,40.7197652,-73.9478321
504,P.S. 147 Isaac Remsen,"325 BUSHWICK AVENUE, BROOKLYN, NY, 11206",School-based Mental Health Clinic,40.7050566,-73.9386916
505,P.S./I.S. 157 The Benjamin Franklin Health & Science Academy,"850 KENT AVENUE, BROOKLYN, NY, 11205",School Mental Health Specialist Program,40.6953729,-73.95995309999999
506,I.S. 318 Eugenio Maria De Hostos,"101 WALTON STREET, BROOKLYN, NY, 11206",Prevention Intervention Program MH,40.7031073,-73.94833539999999
507,"Brooklyn Latin School, The","223 GRAHAM AVENUE, BROOKLYN, NY, 11206",School-based Health Center w/ Mental Health,40.709729,-73.9443861
508,The Williamsburg High School of Art and Technology,"223 GRAHAM AVENUE, BROOKLYN, NY, 11206",Community School MH,40.709729,-73.9443861
509,PROGRESS High School for Professional Careers,"850 GRAND STREET, BROOKLYN, NY, 11211",School-based Health Center w/ Mental Health,40.7119673,-73.94004989999999
510,East Williamsburg Scholars Academy,"850 GRAND STREET, BROOKLYN, NY, 11211",Prevention Intervention Program MH,40.7119673,-73.94004989999999
511,"The High School for Enterprise, Business and Technology","850 GRAND STREET, BROOKLYN, NY, 11211",School-based Health Center w/ Mental Health,40.7119673,-73.94004989999999
512,Brooklyn Preparatory High School,"257 NORTH 6 STREET, BROOKLYN, NY, 11211",School Mental Health Specialist Program,40.7154923,-73.9550398
513,Williamsburg Preparatory School,"257 NORTH 6 STREET, BROOKLYN, NY, 11211",School Mental Health Specialist Program,40.7154923,-73.9550398
514,Conselyea Preparatory School,"208 NORTH 5 STREET, BROOKLYN, NY, 11211",School Mental Health Specialist Program,40.715217,-73.9569941
515,M.S. 582,"207 BUSHWICK AVENUE, BROOKLYN, NY, 11206",Community School MH,40.708637,-73.9394264
516,Lyons Community School,"223 GRAHAM AVENUE, BROOKLYN, NY, 11206",School-based Health Center w/ Mental Health,40.709729,-73.9443861
517,A-Tech High School,"50 BEDFORD AVENUE, BROOKLYN, NY, 11222",Community School MH,40.7220162,-73.9538965
518,Young Women's Leadership School of Brooklyn,"325 BUSHWICK AVENUE, BROOKLYN, NY, 11206",School-based Mental Health Clinic,40.7050566,-73.9386916
519,El Puente Academy for Peace and Justice,"250 HOOPER STREET, BROOKLYN, NY, 11211",School Mental Health Specialist Program,40.7056121,-73.9555879
520,P.S. 001 The Bergen,"309 47 STREET, BROOKLYN, NY, 11220",School-based Health Center w/ Mental Health,40.6486563,-74.0112375
521,"Magnet School of Math, Science and Design Technology","511 7 AVENUE, BROOKLYN, NY, 11215",School-based Mental Health Clinic,40.66092260000001,-73.9862168
522,P.S. 015 Patrick F. Daly,"71 SULLIVAN STREET, BROOKLYN, NY, 11231",School-based Health Center w/ Mental Health,40.6769361,-74.01193099999999
523,P.S. 024,"427 38 STREET, BROOKLYN, NY, 11232",School-based Health Center w/ Mental Health,40.652853,-74.0046414
524,M.S. 51 William Alexander,"350 5 AVENUE, BROOKLYN, NY, 11215",School-based Health Center w/ Mental Health,40.6722839,-73.98456399999999
525,J.H.S. 088 Peter Rouget,"544 7TH AVENUE, BROOKLYN, NY, 11215",School-based Mental Health Clinic,40.6602554,-73.98805329999999
526,I.S. 136 Charles O. Dewey,"4004 4 AVENUE, BROOKLYN, NY, 11232",School-based Health Center w/ Mental Health,40.6519928,-74.0072938
527,"The Brooklyn New School, P.S. 146","610 HENRY STREET, BROOKLYN, NY, 11231",School-based Health Center w/ Mental Health,40.6794537,-74.0021478
528,P.S. 169 Sunset Park,"4305 7 AVENUE, BROOKLYN, NY, 11232",School-based Mental Health Clinic,40.6459698,-74.0018264
529,P.S. 172 Beacon School of Excellence,"825 4 AVENUE, BROOKLYN, NY, 11232",School-based Mental Health Clinic,40.657666,-74.000168
530,Digital Arts and Cinema Technology High School,"284 BALTIC STREET, BROOKLYN, NY, 11201",School-based Health Center w/ Mental Health,40.6849801,-73.9937004
531,M.S. 442 Carroll Gardens School for Innovation,"500 19 STREET, BROOKLYN, NY, 11215",School Mental Health Specialist Program,40.6564072,-73.9827275
532,New Voices School of Academic & Creative Arts,"330 18 STREET, BROOKLYN, NY, 11215",School Mental Health Specialist Program,40.660959,-73.9889256
533,The Math & Science Exploratory School,"345 DEAN STREET, BROOKLYN, NY, 11217",School Mental Health Specialist Program,40.6837172,-73.98023959999999
534,Brooklyn Collaborative Studies,"610 HENRY STREET, BROOKLYN, NY, 11231",School-based Health Center w/ Mental Health,40.6794537,-74.0021478
535,John Jay School for Law,"237 7 AVENUE, BROOKLYN, NY, 11215",School Mental Health Specialist Program,40.6693177,-73.97864109999999
536,Cyberarts Studio Academy,"237 7 AVENUE, BROOKLYN, NY, 11215",School Mental Health Specialist Program,40.6693177,-73.97864109999999
537,Park Slope Collegiate,"237 7 AVENUE, BROOKLYN, NY, 11215",School Mental Health Specialist Program,40.6693177,-73.97864109999999
538,The Boerum Hill School for International Studies,"284 BALTIC STREET, BROOKLYN, NY, 11201",School-based Health Center w/ Mental Health,40.6849801,-73.9937004
539,Khalil Gibran International Academy,"362 SCHERMERHORN STREET, BROOKLYN, NY, 11217",School Mental Health Specialist Program,40.6859562,-73.9798394
540,Brooklyn High School of the Arts,"345 DEAN STREET, BROOKLYN, NY, 11217",School Mental Health Specialist Program,40.6837172,-73.98023959999999
541,Sunset Park High School,"153 35TH STREET, BROOKLYN, NY, 11232",School-based Health Center w/ Mental Health,40.6555967,-74.004217
542,Millennium Brooklyn HS,"237 7 AVENUE, BROOKLYN, NY, 11215",School Mental Health Specialist Program,40.6693177,-73.97864109999999
543,Sunset Park Prep,"4004 4 AVENUE, BROOKLYN, NY, 11232",School-based Health Center w/ Mental Health,40.6519928,-74.0072938
544,M.S. 839,"713 CATON AVENUE, BROOKLYN, NY, 11218",School Mental Health Specialist Program,40.6478367,-73.9732286
545,M.S. 035 Stephen Decatur,"272 MACDONOUGH STREET, BROOKLYN, NY, 11233",School Mental Health Specialist Program,40.6816928,-73.93575249999999
546,Whitelaw Reid Academy of Arts and Business,"125 STUYVESANT AVENUE, BROOKLYN, NY, 11221",School-based Mental Health Clinic,40.6916202,-73.9332768
547,P.S. 081 Thaddeus Stevens,"990 DEKALB AVENUE, BROOKLYN, NY, 11221",School Mental Health Specialist Program,40.6930667,-73.9347451
548,"M.S. 267 Math, Science & Technology","800 GATES AVENUE, BROOKLYN, NY, 11221",School-based Mental Health Clinic,40.6878785,-73.93222279999999
549,P.S. 308 Clara Cardwell,"616 QUINCY STREET, BROOKLYN, NY, 11221",Community School MH,40.6882994,-73.9351595
550,P.S. 335 Granville T. Woods,"130 Rochester Avenue, Brooklyn, NY, 11213",Community School MH,40.6744514,-73.9283126
551,Boys and Girls High School,"1700 FULTON STREET, BROOKLYN, NY, 11213",Community School MH,40.67892270000001,-73.9316585
552,Brooklyn High School for Law and Technology,"1396 BROADWAY, BROOKLYN, NY, 11221",School Mental Health Specialist Program,40.688414,-73.92082649999999
553,Brighter Choice Community School,"280 HART STREET, BROOKLYN, NY, 11206",School Mental Health Specialist Program,40.69376099999999,-73.9407122
554,Brooklyn Brownstone School,"272 MACDONOUGH STREET, BROOKLYN, NY, 11233",School Mental Health Specialist Program,40.6816928,-73.93575249999999
555,Research and Service High School,"1700 FULTON STREET, BROOKLYN, NY, 11213",School-based Mental Health Clinic,40.67892270000001,-73.9316585
556,The Brooklyn Academy of Global Finance,"125 STUYVESANT AVENUE, BROOKLYN, NY, 11221",Community School MH,40.6916202,-73.9332768
557,Nelson Mandela High School,"1700 FULTON STREET, BROOKLYN, NY, 11213",School-based Mental Health Clinic,40.67892270000001,-73.9316585
558,The Brooklyn Green School,"130 Rochester Avenue, Brooklyn, NY, 11213",School Mental Health Specialist Program,40.6744514,-73.9283126
559,Parkside Preparatory Academy,"655 PARKSIDE AVENUE, BROOKLYN, NY, 11226",School Mental Health Specialist Program,40.6564304,-73.9513202
560,Dr. Jacqueline Peek-Davis School,"430 HOWARD AVENUE, BROOKLYN, NY, 11233",School-based Mental Health Clinic,40.6730157,-73.919862
561,M.S. 061 Dr. Gladstone H. Atwell,"400 EMPIRE BOULEVARD, BROOKLYN, NY, 11225",School Response Team,40.6637691,-73.948565
562,P.S. 138 Brooklyn,"760 PROSPECT PLACE, BROOKLYN, NY, 11216",H+H School,40.6737453,-73.9513202
563,P.S. 181 Brooklyn,"1023 NEW YORK AVENUE, BROOKLYN, NY, 11203",H+H School,40.6480961,-73.94599339999999
564,P.S. 189 The Bilingual Center,"1100 EAST NEW YORK AVENUE, BROOKLYN, NY, 11212",School Mental Health Specialist Program,40.6654264,-73.92567100000001
565,P.S. 316 Elijah Stroud,"750 CLASSON AVENUE, BROOKLYN, NY, 11238",School-based Mental Health Clinic,40.6745299,-73.9609174
566,I.S. 340,"227 STERLING PLACE, BROOKLYN, NY, 11238",H+H School,40.6762559,-73.9697873
567,Ebbets Field Middle School,"46 MCKEEVER PLACE, BROOKLYN, NY, 11225",Community School MH,40.6648721,-73.9595858
568,Elijah Stroud Middle School,"750 CLASSON AVENUE, BROOKLYN, NY, 11238",School-based Mental Health Clinic,40.6745299,-73.9609174
569,The School of Integrated Learning,"1224 PARK PLACE, BROOKLYN, NY, 11213",Community School MH,40.6723193,-73.9372221
570,P.S. 375 Jackie Robinson School,"46 MCKEEVER PLACE, BROOKLYN, NY, 11225",School-based Mental Health Clinic,40.6648721,-73.9595858
571,Academy for College Preparation and Career Exploration: A College Board School,"911 FLATBUSH AVENUE, BROOKLYN, NY, 11226",School-based Health Center w/ Mental Health,40.64930349999999,-73.95774899999999
572,M.S. K394,"188 ROCHESTER AVENUE, BROOKLYN, NY, 11213",School Mental Health Specialist Program,40.6726739,-73.9283126
573,Academy of Hospitality and Tourism,"911 FLATBUSH AVENUE, BROOKLYN, NY, 11226",School-based Health Center w/ Mental Health,40.64930349999999,-73.95774899999999
574,Ronald Edmonds Learning Center II,"430 HOWARD AVENUE, BROOKLYN, NY, 11233",School-based Mental Health Clinic,40.6730157,-73.919862
575,International High School at Prospect Heights,"883 CLASSON AVENUE, BROOKLYN, NY, 11225",School Mental Health Specialist Program,40.67004070000001,-73.96102859999999
576,The High School for Global Citizenship,"883 CLASSON AVENUE, BROOKLYN, NY, 11225",School Mental Health Specialist Program,40.67004070000001,-73.96102859999999
577,"School for Human Rights, The","600 KINGSTON AVENUE, BROOKLYN, NY, 11203",Prevention Intervention Program MH,40.6593652,-73.9431462
578,High School for Youth and Community Development at Erasmus,"911 FLATBUSH AVENUE, BROOKLYN, NY, 11226",School-based Health Center w/ Mental Health,40.64930349999999,-73.95774899999999
579,High School for Service & Learning at Erasmus,"911 FLATBUSH AVENUE, BROOKLYN, NY, 11226",School-based Health Center w/ Mental Health,40.64930349999999,-73.95774899999999
580,"Science, Technology and Research Early College High School at Erasmus","911 FLATBUSH AVENUE, BROOKLYN, NY, 11226",School-based Health Center w/ Mental Health,40.64930349999999,-73.95774899999999
581,High School for Public Service: Heroes of Tomorrow,"600 KINGSTON AVENUE, BROOKLYN, NY, 11203",School-based Health Center w/ Mental Health,40.6593652,-73.9431462
582,Brooklyn Academy of Science and the Environment,"883 CLASSON AVENUE, BROOKLYN, NY, 11225",School Mental Health Specialist Program,40.67004070000001,-73.96102859999999
583,Brooklyn School for Music & Theatre,"883 CLASSON AVENUE, BROOKLYN, NY, 11225",Prevention Intervention Program MH,40.67004070000001,-73.96102859999999
584,Brownsville Academy High School,"1150 EAST NEW YORK AVENUE, BROOKLYN, NY, 11212",Community School MH,40.66629460000001,-73.9239496
585,Medgar Evers College Preparatory School,"1186 Carroll Street, Brooklyn, NY, 11225",School Mental Health Specialist Program,40.6669627,-73.9511825
586,Clara Barton High School,"901 CLASSON AVENUE, BROOKLYN, NY, 11225",Prevention Intervention Program MH,40.6690502,-73.9617899
587,Brooklyn Arts and Science Elementary School,"443 ST MARKS AVENUE, BROOKLYN, NY, 11238",H+H School,40.6769629,-73.9600909
588,New Heights Middle School,"790 EAST NEW YORK AVENUE, BROOKLYN, NY, 11203",School Response Team,40.6620182,-73.9362577
589,Brooklyn Institute for Liberal Arts,"600 KINGSTON AVENUE, BROOKLYN, NY, 11203",School-based Health Center w/ Mental Health,40.6593652,-73.9431462
590,P.S. 66,"845 EAST 96 STREET, BROOKLYN, NY, 11236",School Mental Health Specialist Program,40.6487279,-73.9067261
591,I.S. 068 Isaac Bildersee,"956 EAST 82 STREET, BROOKLYN, NY, 11236",School Response Team,40.6348776,-73.9107221
592,P.S. 114 Ryder Elementary,"1077 REMSEN AVENUE, BROOKLYN, NY, 11236",School-based Mental Health Clinic,40.6426492,-73.908012
593,P.S. 208 Elsa Ebeling,"4801 AVENUE D, BROOKLYN, NY, 11203",H+H School,40.6424792,-73.9307007
594,I.S. 211 John Wilson,"1001 EAST 100 STREET, BROOKLYN, NY, 11236",School Mental Health Specialist Program,40.6432708,-73.8958401
595,P.S. 235 Janice Marie Knight School,"525 LENOX ROAD, BROOKLYN, NY, 11203",School Mental Health Specialist Program,40.655042,-73.9406764
596,P.S. 244 Richard R. Green,"5404 TILDEN AVENUE, BROOKLYN, NY, 11203",H+H School,40.6479192,-73.92546519999999
597,P.S. 268 Emma Lazarus,"133 EAST 53 STREET, BROOKLYN, NY, 11203",H+H School,40.6574139,-73.92780739999999
598,P.S. 272 Curtis Estabrook,"101-24 SEAVIEW AVENUE, BROOKLYN, NY, 11236",Community School MH,40.6356012,-73.88645520000001
599,I.S. 285 Meyer Levin,"5909 BEVERLY ROAD, BROOKLYN, NY, 11203",School-based Mental Health Clinic,40.6473935,-73.9206887
600,The Science And Medicine Middle School,"965 EAST 107TH STREET, BROOKLYN, NY, 11236",School Response Team,40.6474872,-73.8917979
601,It Takes a Village Academy,"5800 TILDEN AVENUE, BROOKLYN, NY, 11203",School-based Mental Health Clinic,40.6478943,-73.9228473
602,Brooklyn Community High School for Excellence and Equity,"6565 FLATLANDS AVENUE, BROOKLYN, NY, 11236",Community School MH,40.6336811,-73.91751959999999
603,Brooklyn Theatre Arts High School,"6565 FLATLANDS AVENUE, BROOKLYN, NY, 11236",School-based Health Center w/ Mental Health,40.6336811,-73.91751959999999
604,Kurt Hahn Expeditionary Learning School,"5800 TILDEN AVENUE, BROOKLYN, NY, 11203",School-based Mental Health Clinic,40.6478943,-73.9228473
605,Victory Collegiate High School,"6565 FLATLANDS AVENUE, BROOKLYN, NY, 11236",School-based Health Center w/ Mental Health,40.6336811,-73.91751959999999
606,Brooklyn Bridge Academy,"6565 FLATLANDS AVENUE, BROOKLYN, NY, 11236",School-based Health Center w/ Mental Health,40.6336811,-73.91751959999999
607,"The Middle School of Media, Law and Fine Arts","905 WINTHROP STREET, BROOKLYN, NY, 11203",Community School MH,40.6586846,-73.9286824
608,Middle School for Art and Philosophy,"1084 LENOX ROAD, BROOKLYN, NY, 11212",School Response Team,40.6579834,-73.92013759999999
609,High School for Innovation in Advertising and Media,"1600 ROCKAWAY PARKWAY, BROOKLYN, NY, 11236",School-based Mental Health Clinic,40.640443,-73.8987798
610,Cultural Academy for the Arts and Sciences,"5800 TILDEN AVENUE, BROOKLYN, NY, 11203",School-based Mental Health Clinic,40.6478943,-73.9228473
611,High School for Medical Professions,"1600 ROCKAWAY PARKWAY, BROOKLYN, NY, 11236",School-based Mental Health Clinic,40.640443,-73.8987798
612,Academy for Conservation and the Environment,"6565 FLATLANDS AVENUE, BROOKLYN, NY, 11236",School-based Health Center w/ Mental Health,40.6336811,-73.91751959999999
613,Urban Action Academy,"1600 ROCKAWAY PARKWAY, BROOKLYN, NY, 11236",School-based Mental Health Clinic,40.640443,-73.8987798
614,East Brooklyn Community High School,"9517 KINGS HIGHWAY, BROOKLYN, NY, 11212",Community School MH,40.6597946,-73.9206428
615,Brooklyn Science and Engineering Academy,"5404 TILDEN AVENUE, BROOKLYN, NY, 11203",H+H School,40.6479192,-73.92546519999999
616,P.S. 007 Abraham Lincoln,"858 JAMAICA AVENUE, BROOKLYN, NY, 11208",School Mental Health Specialist Program,40.6894254,-73.87314789999999
617,P.S. 013 Roberto Clemente,"557 PENNSYLVANIA AVENUE, BROOKLYN, NY, 11207",School-based Mental Health Clinic,40.6637837,-73.89325869999999
618,P.S. 089 Cypress Hills,"265 WARWICK STREET, BROOKLYN, NY, 11207",School Mental Health Specialist Program,40.6777898,-73.886699
619,P.S. 108 Sal Abbracciamento,"200 LINWOOD STREET, BROOKLYN, NY, 11208",School Mental Health Specialist Program,40.6812345,-73.8843103
620,P.S. 158 Warwick,"400 ASHFORD STREET, BROOKLYN, NY, 11207",Community School MH,40.6725442,-73.8851372
621,I.S. 171 Abraham Lincoln,"528 RIDGEWOOD AVENUE, BROOKLYN, NY, 11208",School Response Team,40.6858609,-73.8693804
622,P.S. 213 New Lots,"580 HEGEMAN AVENUE, BROOKLYN, NY, 11207",School Mental Health Specialist Program,40.6599865,-73.890282
623,P.S. 214 Michael Friedsam,"2944 PITKIN AVENUE, BROOKLYN, NY, 11208",School Mental Health Specialist Program,40.6762696,-73.86308650000001
624,J.H.S. 218 James P. Sinnott,"370 FOUNTAIN AVENUE, BROOKLYN, NY, 11208",School Mental Health Specialist Program,40.6698815,-73.87434189999999
625,P.S. 224 Hale A. Woodruff,"757 WORTMAN AVENUE, BROOKLYN, NY, 11208",School Mental Health Specialist Program,40.6646549,-73.8658889
626,P.S. 273 Wortman,"923 JEROME STREET, BROOKLYN, NY, 11207",School Mental Health Specialist Program,40.6582896,-73.8792113
627,P.S. 290 Juan Morel Campos,"135 SCHENCK AVENUE, BROOKLYN, NY, 11207",School Mental Health Specialist Program,40.6781833,-73.8894552
628,J.H.S. 292 Margaret S. Douglas,"301 VERMONT STREET, BROOKLYN, NY, 11207",Community School MH,40.6716865,-73.89333669999999
629,P.S. 306 Ethan Allen,"970 VERMONT STREET, BROOKLYN, NY, 11207",Community School MH,40.6552486,-73.8863315
630,P.S. 328 Phyllis Wheatley,"330 ALABAMA AVENUE, BROOKLYN, NY, 11207",Community School MH,40.6679093,-73.8984124
631,P.S. 346 Abe Stark,"1400 PENNSYLVANIA AVENUE, BROOKLYN, NY, 11239",School Response Team,40.6467211,-73.88182979999999
632,I.S. 364 Gateway,"1426 FREEPORT LOOP, BROOKLYN, NY, 11239",School Response Team,40.6464708,-73.88113179999999
633,Academy for Young Writers,"1065 ELTON STREET, BROOKLYN, NY, 11208",Community School MH,40.6572453,-73.8740662
634,East New York Family Academy,"145 PENNSYLVANIA AVENUE, BROOKLYN, NY, 11207",School Mental Health Specialist Program,40.6738372,-73.8960768
635,Spring Creek Community School,"1065 ELTON STREET, BROOKLYN, NY, 11208",Community School MH,40.6572453,-73.8740662
636,Frederick Douglass Academy VIII Middle School,"1400 PENNSYLVANIA AVENUE, BROOKLYN, NY, 11239",School Mental Health Specialist Program,40.6467211,-73.88182979999999
637,FDNY - Captain Vernon A. Richard High School for Fire and Life Safety,"400 PENNSYLVANIA AVENUE, BROOKLYN, NY, 11207",School-based Mental Health Clinic,40.6669551,-73.89494119999999
638,High School for Civil Rights,"400 PENNSYLVANIA AVENUE, BROOKLYN, NY, 11207",School-based Mental Health Clinic,40.6669551,-73.89494119999999
639,Performing Arts and Technology High School,"400 PENNSYLVANIA AVENUE, BROOKLYN, NY, 11207",School-based Mental Health Clinic,40.6669551,-73.89494119999999
640,World Academy for Total Community Health High School,"400 PENNSYLVANIA AVENUE, BROOKLYN, NY, 11207",School-based Mental Health Clinic,40.6669551,-73.89494119999999
641,Brooklyn Gardens Elementary School,"574 DUMONT AVENUE, BROOKLYN, NY, 11207",Community School MH,40.6655954,-73.8976315
642,Multicultural High School,"999 JAMAICA AVENUE, BROOKLYN, NY, 11208",Community School MH,40.692915,-73.8690129
643,Academy of Innovative Technology,"999 JAMAICA AVENUE, BROOKLYN, NY, 11208",School-based Health Center w/ Mental Health,40.692915,-73.8690129
644,Brooklyn Lab School,"999 JAMAICA AVENUE, BROOKLYN, NY, 11208",Community School MH,40.692915,-73.8690129
645,Van Siclen Community Middle School,"800 VAN SICLEN AVE, BROOKLYN, NY, 11207",School Mental Health Specialist Program,40.6598585,-73.8855966
646,Cypress Hills Collegiate Preparatory School,"999 JAMAICA AVENUE, BROOKLYN, NY, 11208",Community School MH,40.692915,-73.8690129
647,Vista Academy,"350 LINWOOD STREET, BROOKLYN, NY, 11208",School Mental Health Specialist Program,40.6771191,-73.8838969
648,Liberty Avenue Middle School,"350 LINWOOD STREET, BROOKLYN, NY, 11208",School Mental Health Specialist Program,40.6771191,-73.8838969
649,School of the Future Brooklyn,"574 DUMONT AVENUE, BROOKLYN, NY, 11207",School Mental Health Specialist Program,40.6655954,-73.8976315
650,East New York Elementary School of Excellence,"605 SHEPHERD AVENUE, BROOKLYN, NY, 11208",School-based Mental Health Clinic,40.6694182,-73.8792113
651,East New York Middle School of Excellence,"605 SHEPHERD AVENUE, BROOKLYN, NY, 11208",School-based Mental Health Clinic,40.6694182,-73.8792113
652,School for Classics High School,"370 FOUNTAIN AVENUE, BROOKLYN, NY, 11208",School Mental Health Specialist Program,40.6698815,-73.87434189999999
653,Highland Park Community School,"528 RIDGEWOOD AVENUE, BROOKLYN, NY, 11208",School Mental Health Specialist Program,40.6858609,-73.8693804
654,The Urban Assembly School for Collaborative Healthcare,"999 JAMAICA AVENUE, BROOKLYN, NY, 11208",School-based Health Center w/ Mental Health,40.692915,-73.8690129
655,The East New York Arts and Civics High School,"800 VAN SICLEN AVE, BROOKLYN, NY, 11207",School Mental Health Specialist Program,40.6598585,-73.8855966
656,P.S./I.S. 30 Mary White Ovington,"7002 4TH AVENUE, BROOKLYN, NY, 11209",School Mental Health Specialist Program,40.6335797,-74.0243082
657,J.H.S. 062 Ditmas,"700 CORTELYOU ROAD, BROOKLYN, NY, 11218",School Mental Health Specialist Program,40.6382369,-73.971509
658,P.S./I.S. 104 The Fort Hamilton School,"9115 5 AVENUE, BROOKLYN, NY, 11209",School Mental Health Specialist Program,40.6181011,-74.0286826
659,P.S. 163 Bath Beach,"109 BAY 14TH STREET, BROOKLYN, NY, 11214",School Mental Health Specialist Program,40.6067282,-74.0077026
660,The SEEALL Academy,"5601 16 AVENUE, BROOKLYN, NY, 11204",School Mental Health Specialist Program,40.6267129,-73.9895684
661,The Christa McAuliffe School\I.S. 187,"1171 65 STREET, BROOKLYN, NY, 11219",School Mental Health Specialist Program,40.6278464,-74.0040229
662,P.S. 192 - The Magnet School for Math and Science Inquiry,"4715 18 AVENUE, BROOKLYN, NY, 11204",School Mental Health Specialist Program,40.6289228,-73.979789
663,J.H.S. 201 The Dyker Heights,"8010 12 AVENUE, BROOKLYN, NY, 11228",School Mental Health Specialist Program,40.6186835,-74.0131655
664,P.S. 205 Clarion,"6701 20 AVENUE, BROOKLYN, NY, 11204",School-based Mental Health Clinic,40.6147564,-73.9870892
665,J.H.S. 223 The Montauk,"4200 16 AVENUE, BROOKLYN, NY, 11204",School Mental Health Specialist Program,40.6349179,-73.9824083
666,J.H.S. 227 Edward B. Shallow,"6500 16 AVENUE, BROOKLYN, NY, 11204",School Mental Health Specialist Program,40.6220794,-73.9956286
667,P.S. 229 Dyker,"1400 BENSON AVENUE, BROOKLYN, NY, 11228",School Mental Health Specialist Program,40.6100818,-74.0136246
668,New Utrecht High School,"1601 80 STREET, BROOKLYN, NY, 11214",School Mental Health Specialist Program,40.6130029,-74.00228550000001
669,High School of Telecommunication Arts and Technology,"350 67 STREET, BROOKLYN, NY, 11220",School Mental Health Specialist Program,40.63679140000001,-74.0233105
670,Fort Hamilton High School,"8301 SHORE ROAD, BROOKLYN, NY, 11209",School Mental Health Specialist Program,40.6272269,-74.03937599999999
671,P.S. 503: The School of Discovery,"330 59 STREET, BROOKLYN, NY, 11220",School-based Health Center w/ Mental Health,40.6419176,-74.0190873
672,Franklin Delano Roosevelt High School,"5800 20 AVENUE, BROOKLYN, NY, 11204",Prevention Intervention Program MH,40.6217081,-73.9834621
673,P.S. 506: The School of Journalism & Technology,"330 59 STREET, BROOKLYN, NY, 11220",School-based Health Center w/ Mental Health,40.6419176,-74.0190873
674,Urban Assembly School for Leadership and Empowerment,"4200 16 AVENUE, BROOKLYN, NY, 11204",School Mental Health Specialist Program,40.6349179,-73.9824083
675,Brooklyn School of Inquiry,"50 AVENUE P, BROOKLYN, NY, 11204",School Mental Health Specialist Program,40.6070962,-73.9869672
676,MS 936 Arts Off 3rd,"270 59TH STREET, BROOKLYN, NY, 11220",School Mental Health Specialist Program,40.6429768,-74.0204425
677,P.S. 095 The Gravesend,"345 VAN SICKLEN STREET, BROOKLYN, NY, 11223",School Mental Health Specialist Program,40.5958765,-73.9748302
678,I.S. 096 Seth Low,"99 AVENUE P, BROOKLYN, NY, 11204",Community School MH,40.6079832,-73.9851608
679,I.S. 98 Bay Academy,"1401 EMMONS AVENUE, BROOKLYN, NY, 11235",School Mental Health Specialist Program,40.5838219,-73.9542591
680,P.S. 099 Isaac Asimov,"1120 EAST 10 STREET, BROOKLYN, NY, 11230",School Mental Health Specialist Program,40.6215239,-73.9658847
681,P.S. 121 Nelson A. Rockefeller,"5301 20 AVENUE, BROOKLYN, NY, 11204",School Mental Health Specialist Program,40.6228681,-73.97882480000001
682,P.S. 188 Michael E. Berdy,"3314 NEPTUNE AVENUE, BROOKLYN, NY, 11224",School-based Health Center w/ Mental Health,40.5769299,-74.0005238
683,P.S. K225 - The Eileen E. Zaglin,"1075 OCEAN VIEW AVENUE, BROOKLYN, NY, 11235",School Mental Health Specialist Program,40.57980999999999,-73.9560103
684,P.S. 238 Anne Sullivan,"1633 EAST 8 STREET, BROOKLYN, NY, 11223",School Mental Health Specialist Program,40.6086363,-73.96468270000001
685,Mark Twain I.S. 239 for the Gifted & Talented,"2401 NEPTUNE AVENUE, BROOKLYN, NY, 11224",School Mental Health Specialist Program,40.5787151,-73.9924608
686,I.S. 281 Joseph B Cavallaro,"8787 24 AVENUE, BROOKLYN, NY, 11214",School Mental Health Specialist Program,40.594251,-73.99392999999999
687,P.S. 288 The Shirley Tanyhill,"2950 WEST 25 STREET, BROOKLYN, NY, 11224",School Mental Health Specialist Program,40.5742244,-73.9924608
688,I.S. 303 Herbert S. Eisenberg,"501 WEST AVENUE, BROOKLYN, NY, 11224",School Mental Health Specialist Program,40.58263640000001,-73.9720753
689,P.S. 329 Surfside,"2929 WEST 30 STREET, BROOKLYN, NY, 11224",School-based Mental Health Clinic,40.5746928,-73.9957664
690,International High School at Lafayette,"2630 BENSON AVENUE, BROOKLYN, NY, 11214",School-based Mental Health Clinic,40.5937576,-73.9863546
691,Rachel Carson High School for Coastal Studies,"521 WEST AVENUE, BROOKLYN, NY, 11224",School Mental Health Specialist Program,40.58270270000001,-73.9723072
692,High School of Sports Management,"2630 BENSON AVENUE, BROOKLYN, NY, 11214",School-based Mental Health Clinic,40.5937576,-73.9863546
693,Abraham Lincoln High School,"2800 OCEAN PARKWAY, BROOKLYN, NY, 11235",Prevention Intervention Program MH,40.5828631,-73.9682183
694,Kingsborough Early College School,"2630 BENSON AVENUE, BROOKLYN, NY, 11214",School-based Mental Health Clinic,40.5937576,-73.9863546
695,Edward R. Murrow High School,"1600 AVENUE L, BROOKLYN, NY, 11230",Prevention Intervention Program MH,40.6195422,-73.9589429
696,John Dewey High School,"50 AVENUE X, BROOKLYN, NY, 11223",School-based Mental Health Clinic,40.5877456,-73.9813501
697,Life Academy High School for Film and Music,"2630 BENSON AVENUE, BROOKLYN, NY, 11214",School-based Mental Health Clinic,40.5937576,-73.9863546
698,Leaders High School,"2630 BENSON AVENUE, BROOKLYN, NY, 11214",School-based Mental Health Clinic,40.5937576,-73.9863546
699,Brooklyn Studio Secondary School,"8310 21ST AVENUE, BROOKLYN, NY, 11214",School Mental Health Specialist Program,40.6048465,-73.9947464
700,J.H.S. 014 Shell Bank,"2424 BATCHELDER STREET, BROOKLYN, NY, 11235",School Mental Health Specialist Program,40.5934685,-73.93827689999999
701,J.H.S. 078 Roy H. Mann,"1420 EAST 68 STREET, BROOKLYN, NY, 11234",Prevention Intervention Program MH,40.6208332,-73.9131104
702,P.S. 109,"1001 EAST 45 STREET, BROOKLYN, NY, 11203",School Mental Health Specialist Program,40.636395,-73.9333185
703,P.S. 139 Alexine A. Fenty,"330 RUGBY ROAD, BROOKLYN, NY, 11226",School-based Mental Health Clinic,40.6413592,-73.9657847
704,P.S. 206 Joseph F Lamb,"2200 GRAVESEND NECK ROAD, BROOKLYN, NY, 11229",School-based Mental Health Clinic,40.5972728,-73.9484272
705,P.S. 207 Elizabeth G. Leary,"4011 FILLMORE AVENUE, BROOKLYN, NY, 11234",School Mental Health Specialist Program,40.6137068,-73.9301496
706,J.H.S. 234 Arthur W. Cunningham,"1875 EAST 17 STREET, BROOKLYN, NY, 11229",School Mental Health Specialist Program,40.6045068,-73.9552235
707,Andries Hudde,"2500 NOSTRAND AVENUE, BROOKLYN, NY, 11210",School Mental Health Specialist Program,40.6239694,-73.9470955
708,J.H.S. 278 Marine Park,"1925 STUART STREET, BROOKLYN, NY, 11229",School Mental Health Specialist Program,40.6066501,-73.938462
709,I. S. 381,"2500 NOSTRAND AVENUE, BROOKLYN, NY, 11210",School Mental Health Specialist Program,40.6239694,-73.9470955
710,Midwood High School,"2839 BEDFORD AVENUE, BROOKLYN, NY, 11210",School Mental Health Specialist Program,40.6322826,-73.9533407
711,James Madison High School,"3787 BEDFORD AVENUE, BROOKLYN, NY, 11229",Prevention Intervention Program MH,40.6101298,-73.947968
712,Leon M. Goldstein High School for the Sciences,"1830 SHORE BOULEVARD, BROOKLYN, NY, 11235",School Mental Health Specialist Program,40.5803054,-73.9349718
713,Brooklyn College Academy,"350 CONEY ISLAND AVENUE, BROOKLYN, NY, 11218",School Mental Health Specialist Program,40.6492022,-73.9718961
714,Origins High School,"3000 AVENUE X, BROOKLYN, NY, 11235",School-based Health Center w/ Mental Health,40.5935047,-73.9368992
715,Professional Pathways High School,"3000 AVENUE X, BROOKLYN, NY, 11235",School-based Health Center w/ Mental Health,40.5935047,-73.9368992
716,M.S. 890,"21 HINCKLEY PLACE, BROOKLYN, NY, 11218",School Mental Health Specialist Program,40.6445569,-73.97133769999999
717,P.S. 041 Francis White,"411 THATFORD AVENUE, BROOKLYN, NY, 11212",School Mental Health Specialist Program,40.660182,-73.9068734
718,P.S./ I.S. 155 Nicholas Herkimer,"1355 HERKIMER STREET, BROOKLYN, NY, 11233",School Mental Health Specialist Program,40.6776074,-73.90866079999999
719,P.S. 156 Waverly,"104 SUTTER AVENUE, BROOKLYN, NY, 11212",Community School MH,40.6654788,-73.9180947
720,P.S. 165 Ida Posner,"76 LOTT AVENUE, BROOKLYN, NY, 11212",Community School MH,40.6571964,-73.9110895
721,P.S. 178 Saint Clair Mckelway,"2163 DEAN STREET, BROOKLYN, NY, 11233",School Mental Health Specialist Program,40.6752336,-73.915361
722,P.S. 184 Newport,"273 NEWPORT STREET, BROOKLYN, NY, 11212",School Mental Health Specialist Program,40.6601967,-73.9050266
723,"The Gregory Jocko Jackson School of Sports, Art, and Technology","213 OSBORN STREET, BROOKLYN, NY, 11212",Community School MH,40.6669333,-73.9075529
724,P.S. 298 Dr. Betty Shabazz,"85 WATKINS STREET, BROOKLYN, NY, 11212",Community School MH,40.671229,-73.90759880000002
725,P.S./I.S. 323,"210 CHESTER STREET, BROOKLYN, NY, 11212",School Mental Health Specialist Program,40.66631690000001,-73.9110895
